,country,province,county_x,last_updated,coordinates.latitude,coordinates.longitude,latest.confirmed,latest.deaths,latest.recovered,state,county_y,NAME,Doctorate degree ,Professional school degree,Masters degree,Bachelors degree,population_size,percentCases,percentDeath,underBach,underBachPercentage,bachAndAbove,bachAndAbovePercentage,postBach,postBachPercentage
0,US,California,"Los Angeles County, California",2021-05-06T16:31:00Z,34.053490000000004,-118.24531999999999,1234405,24191,0,6,37,"Los Angeles County, California",91828,165612,522777,1460862,6886895,0.179239700910207,0.0035126134491668595,4645816,0.6745878948350454,2241079,0.3254121051649546,780217,0.11329009662554751
1,US,California,"Riverside County, California",2021-05-06T16:31:00Z,33.98171,-117.37404,298872,4576,0,6,65,"Riverside County, California",15073,21490,90052,221322,1559869,0.191600704930991,0.0029335796788063613,1211932,0.7769447306151991,347937,0.2230552693848009,126615,0.08117027776050424
2,US,California,"San Bernardino County, California",2021-05-06T16:31:00Z,34.10524,-117.29411999999999,296257,4448,0,6,71,"San Bernardino County, California",10066,16940,72885,183593,1350620,0.21934889162014481,0.003293302335223823,1067136,0.7901082465830508,283484,0.20989175341694924,99891,0.07395936680931721
3,US,California,"San Diego County, California",2021-05-06T16:31:00Z,32.71568,-117.16171000000001,277097,3716,0,6,73,"San Diego County, California",47846,64991,225220,533725,2246571,0.12334219572851247,0.0016540763679402965,1374789,0.6119499450495889,871782,0.3880500549504111,338057,0.15047688232421766
4,US,California,"Orange County, California",2021-05-06T16:31:00Z,33.78787,-117.85071,254163,4979,0,6,59,"Orange County, California",36910,61323,217133,564720,2168424,0.11721093291717856,0.0022961376557352254,1288338,0.5941356487476619,880086,0.4058643512523381,315366,0.14543557901960133
5,US,California,"Santa Clara County, California",2021-05-06T16:31:00Z,37.35579,-121.95508999999998,118593,2073,0,6,85,"Santa Clara County, California",53518,37309,239068,369625,1334958,0.08883650272143394,0.0015528578427186474,635438,0.4759984958328277,699520,0.5240015041671723,329895,0.24712013411657896
6,US,California,"Kern County, California",2021-05-06T16:31:00Z,35.34281638,-118.7299395,108822,1361,0,6,29,"Kern County, California",2951,5222,20953,58968,537799,0.20234697349753347,0.0025306852560157233,449705,0.8361953071686634,88094,0.1638046928313366,29126,0.0541577801371888
7,US,California,"Sacramento County, California",2021-05-06T16:31:00Z,38.57944000000001,-121.49085,103595,1667,0,6,67,"Sacramento County, California",10965,23313,72897,210144,1028580,0.10071652180676272,0.0016206809387699548,711261,0.6914979875167707,317319,0.3085020124832293,107175,0.10419704835793035
8,US,California,"Fresno County, California",2021-05-06T16:31:00Z,36.74084000000001,-119.78551999999999,101451,1678,0,6,19,"Fresno County, California",4669,11054,27427,84769,604137,0.1679271423534728,0.0027775156959431386,476218,0.7882616029145707,127919,0.2117383970854293,43150,0.07142419682952708
9,US,California,"Alameda County, California",2021-05-06T16:31:00Z,37.76683,-122.2453,87372,1539,0,6,1,"Alameda County, California",35566,35503,164717,320319,1172662,0.07450740281513343,0.0013123986280786791,616557,0.5257755431658909,556105,0.4742244568341091,235786,0.20106902074084435
10,US,California,"Ventura County, California",2021-05-06T16:31:00Z,34.28082,-119.29231999999999,80776,1009,0,6,111,"Ventura County, California",8972,14027,48177,121499,570146,0.1416759917635132,0.0017697221413462516,377471,0.6620602442181477,192675,0.33793975578185237,71176,0.12483819933841507
11,US,California,"San Joaquin County, California",2021-05-06T16:31:00Z,37.93479557,-121.2713112,72784,1384,0,6,77,"San Joaquin County, California",2653,5726,19050,60276,467455,0.1557026879592688,0.002960712795884096,379750,0.8123776620209432,87705,0.1876223379790568,27429,0.05867730583692548
12,US,California,"Contra Costa County, California",2021-05-06T16:31:00Z,37.91793732,-121.9259354,68279,787,0,6,13,"Contra Costa County, California",16460,24350,85966,206622,787178,0.0867389586599219,0.000999773875794293,453780,0.5764642812680233,333398,0.42353571873197676,126776,0.1610512488916103
13,US,California,"Stanislaus County, California",2021-05-06T16:31:00Z,37.55932622,-120.9976619,55105,1050,0,6,99,"Stanislaus County, California",1977,4290,11755,40630,343626,0.16036330196201684,0.0030556477100103017,284974,0.8293144290595007,58652,0.17068557094049927,18022,0.05244655526648158
14,US,California,"Tulare County, California",2021-05-06T16:31:00Z,36.20649,-119.34305,49585,837,0,6,107,"Tulare County, California",1319,2518,9274,26586,271351,0.1827338023445648,0.0030845657469476804,231654,0.8537060854760071,39697,0.1462939145239929,13111,0.048317492841375195
15,US,California,"Monterey County, California",2021-05-06T16:31:00Z,36.21714603,-121.2390196,43506,382,0,6,53,"Monterey County, California",3507,5602,18092,40905,275668,0.15782027656456318,0.001385724857437207,207562,0.752941944658067,68106,0.24705805534193304,27201,0.09867304148468448
16,US,California,"San Mateo County, California",2021-05-06T16:31:00Z,37.54704,-122.31485,41653,567,0,6,81,"San Mateo County, California",20860,23033,77549,159607,551290,0.07555551524605925,0.0010284967984182554,270241,0.4901975366866803,281049,0.5098024633133197,121442,0.22028696330425004
17,US,California,"Solano County, California",2021-05-06T16:31:00Z,38.27793363,-121.9272405,39766,216,0,6,95,"Solano County, California",2328,4776,18104,56528,303699,0.13093885722376433,0.0007112305275947566,221963,0.7308650999838656,81736,0.2691349000161344,25208,0.08300323675744734
18,US,California,"San Francisco County, California",2021-05-06T16:31:00Z,37.777120000000004,-122.41963999999999,36234,538,0,6,75,"San Francisco County, California",19535,35058,107424,241699,695330,0.05211050867933212,0.0007737333352508881,291614,0.4193893546948931,403716,0.580610645305107,162017,0.23300734902851883
19,US,California,"Santa Barbara County, California",2021-05-06T16:31:00Z,34.41938,-119.69905,34261,450,0,6,83,"Santa Barbara County, California",6758,7129,24612,55474,275092,0.12454378898695709,0.0016358163814287584,181119,0.6583942826399896,93973,0.3416057173600105,38499,0.13994954415250171
20,US,California,"Merced County, California",2021-05-06T16:31:00Z,37.19187429,-120.717739,31701,454,0,6,47,"Merced County, California",901,1286,5301,14630,160388,0.1976519440357134,0.0028306357084071127,138270,0.8620969149811707,22118,0.13790308501882934,7488,0.04668678454747238
21,US,California,"Sonoma County, California",2021-05-06T16:31:00Z,38.29188,-122.45728000000001,29921,312,0,6,97,"Sonoma County, California",5754,11027,30937,79864,359314,0.08327256939612707,0.0008683213011460728,231732,0.644928947939685,127582,0.3550710520603149,47718,0.13280306361566763
22,US,California,"Imperial County, California",2021-05-06T16:31:00Z,32.84748,-115.56952,27862,720,0,6,25,"Imperial County, California",311,904,3829,11716,110125,0.2530034052213394,0.006538024971623155,93365,0.8478093076049943,16760,0.15219069239500568,5044,0.04580249716231555
23,US,California,"Kings County, California",2021-05-06T16:31:00Z,36.07543071,-119.8153541,22993,246,0,6,31,"Kings County, California",299,1058,2843,9430,92916,0.24746007146239615,0.0026475526281802917,79286,0.8533083645443196,13630,0.1466916354556804,4200,0.04520211804210254
24,US,California,"Placer County, California",2021-05-06T16:31:00Z,39.05913563,-120.75363279999999,22386,290,0,6,61,"Placer County, California",2941,8330,24589,71518,270397,0.08278938005969001,0.0010724971061069465,163019,0.6028876060015459,107378,0.3971123939984541,35860,0.1326198145689486
25,US,California,"San Luis Obispo County, California",2021-05-06T16:31:00Z,35.28579000000001,-120.66275,21243,260,0,6,79,"San Luis Obispo County, California",3284,5080,17012,41436,188857,0.11248193077301874,0.0013767030080960726,122045,0.6462296870118661,66812,0.3537703129881339,25376,0.1343662135901767
26,US,California,"Madera County, California",2021-05-06T16:31:00Z,36.96205,-120.06398999999999,16319,242,0,6,39,"Madera County, California",371,845,3059,9917,97527,0.16732802198365582,0.0024813641350600346,83335,0.8544813231207768,14192,0.14551867687922318,4275,0.043834015195791935
27,US,California,"Santa Cruz County, California",2021-05-06T16:31:00Z,36.97424,-122.03098,16029,205,0,6,87,"Santa Cruz County, California",5393,5464,19835,42819,180000,0.08905,0.001138888888888889,106489,0.5916055555555556,73511,0.40839444444444445,30692,0.1705111111111111
28,US,California,"Marin County, California",2021-05-06T16:31:00Z,38.07188727,-122.7195348,14009,237,0,6,41,"Marin County, California",5969,12434,29500,65371,190403,0.07357552139409568,0.0012447282868442199,77129,0.4050829031055183,113274,0.5949170968944817,47903,0.251587422467083
29,US,California,"Yolo County, California",2021-05-06T16:31:00Z,38.73431,-121.81278999999999,13760,207,0,6,113,"Yolo County, California",6334,5403,13552,27562,127586,0.10784882353863276,0.001622435063408211,74735,0.5857617606947471,52851,0.41423823930525294,25289,0.19821140250497704
30,US,California,"Shasta County, California",2021-05-06T16:31:00Z,40.598279999999995,-122.49095,11994,225,0,6,89,"Shasta County, California",681,2538,6098,18727,126524,0.09479624419082545,0.0017783187379469508,98480,0.778350352502292,28044,0.22164964749770794,9317,0.0736382030286744
31,US,California,"Butte County, California",2021-05-06T16:31:00Z,39.66709143,-121.60091100000001,11700,182,0,6,7,"Butte County, California",1843,3327,8461,26518,147509,0.07931719420509935,0.0012338230209682122,107360,0.727819997423886,40149,0.272180002576114,13631,0.09240792087262473
32,US,California,"El Dorado County, California",2021-05-06T16:31:00Z,38.68217,-120.84683000000001,10073,111,0,6,17,"El Dorado County, California",1930,3571,10480,31014,137028,0.07351052339667805,0.0008100534197390314,90033,0.657040896751029,46995,0.342959103248971,15981,0.1166257991067519
33,US,California,"Napa County, California",2021-05-06T16:31:00Z,38.50647693,-122.3306091,9832,78,0,6,55,"Napa County, California",1403,3183,7689,22816,98223,0.10009875487411299,0.0007941113588467059,63132,0.6427415167526954,35091,0.3572584832473046,12275,0.12497072986978609
34,US,California,"Sutter County, California",2021-05-06T16:31:00Z,39.03467539,-121.69484569999999,9398,105,0,6,101,"Sutter County, California",202,839,2926,7457,62626,0.15006546801647877,0.0016766199342126272,51202,0.8175837511576661,11424,0.18241624884233384,3967,0.06334429789544278
35,US,California,"Yuba County, California",2021-05-06T16:31:00Z,39.26918299,-121.3512653,6213,41,0,6,115,"Yuba County, California",152,439,1730,5872,48033,0.1293485728561614,0.0008535798305331751,39840,0.8294297670351634,8193,0.17057023296483667,2321,0.048320946016280474
36,US,California,"San Benito County, California",2021-05-06T16:31:00Z,36.50506,-121.08332,6040,63,0,6,69,"San Benito County, California",261,428,1703,5294,38958,0.15503875968992248,0.0016171261358385953,31272,0.8027106114276914,7686,0.19728938857230863,2392,0.061399455824220954
37,US,California,"Lassen County, California",2021-05-06T16:31:00Z,40.68244754,-120.60036909999998,5696,24,0,6,35,"Lassen County, California",72,219,557,2080,22615,0.25186822905151446,0.0010612425381384036,19687,0.8705284103471147,2928,0.12947158965288524,848,0.03749723634755693
38,US,California,"Tehama County, California",2021-05-06T16:31:00Z,40.12569694,-122.23391529999999,5545,58,0,6,103,"Tehama County, California",89,497,1418,4864,43850,0.12645381984036488,0.001322690992018244,36982,0.8433751425313569,6868,0.1566248574686431,2004,0.045701254275940704
39,US,California,"Nevada County, California",2021-05-06T16:31:00Z,39.2616,-121.0161,4671,75,0,6,57,"Nevada County, California",1054,1844,6997,18412,76000,0.06146052631578947,0.000986842105263158,47693,0.6275394736842105,28307,0.37246052631578946,9895,0.13019736842105264
40,US,California,"Tuolumne County, California",2021-05-06T16:31:00Z,38.02764367,-119.95465359999999,4115,65,0,6,109,"Tuolumne County, California",317,649,2045,5460,41304,0.09962715475498742,0.0015736974627154755,32833,0.7949109045128802,8471,0.2050890954871199,3011,0.07289850861901995
41,US,California,"Mendocino County, California",2021-05-06T16:31:00Z,39.44024063,-123.3912784,4055,48,0,6,45,"Mendocino County, California",700,1292,3480,9685,62005,0.06539795177808241,0.0007741311184581888,46848,0.7555519716151923,15157,0.24444802838480767,5472,0.08825094750423353
42,US,California,"Humboldt County, California",2021-05-06T16:31:00Z,40.69879803,-123.87371470000001,3985,39,0,6,23,"Humboldt County, California",1263,2085,6030,18745,92463,0.04309832040924478,0.0004217903377567243,64340,0.6958459059299396,28123,0.30415409407006044,9378,0.10142435352519386
43,US,California,"Amador County, California",2021-05-06T16:31:00Z,38.44606535,-120.65175500000001,3617,51,0,6,5,"Amador County, California",190,593,1075,3979,30295,0.11939263904934808,0.0016834461132200034,24458,0.8073279419046048,5837,0.19267205809539528,1858,0.06133025251691698
44,US,California,"Lake County, California",2021-05-06T16:31:00Z,39.10265343,-122.75089740000001,3440,43,0,6,33,"Lake County, California",210,615,1728,4659,46426,0.07409641149355964,0.0009262051436694955,39214,0.8446560117175721,7212,0.15534398828242796,2553,0.0549907379485633
45,US,California,"Glenn County, California",2021-05-06T16:31:00Z,39.59827984,-122.392389,2715,25,0,6,21,"Glenn County, California",60,175,342,1964,17951,0.15124505598573895,0.001392680073533508,15410,0.8584479973260543,2541,0.14155200267394574,577,0.032143056097153365
46,US,California,"Colusa County, California",2021-05-06T16:31:00Z,39.17759768,-122.2371023,2224,16,0,6,11,"Colusa County, California",67,119,343,1523,13677,0.16260875923082546,0.0011698471887109747,11625,0.8499670980478174,2052,0.1500329019521825,529,0.038678072676756596
47,US,California,"Siskiyou County, California",2021-05-06T16:31:00Z,41.59256366,-122.54077720000001,2151,22,0,6,93,"Siskiyou County, California",275,662,1547,4859,31682,0.06789344107063948,0.0006944006060223471,24339,0.7682280159080866,7343,0.23177198409191338,2484,0.07840414115270501
48,US,California,"Calaveras County, California",2021-05-06T16:31:00Z,38.20473567,-120.55406550000001,2111,53,0,6,9,"Calaveras County, California",229,402,1493,4260,34848,0.06057736455463728,0.0015208907254361799,28464,0.8168044077134986,6384,0.18319559228650137,2124,0.060950413223140494
49,US,California,"Inyo County, California",2021-05-06T16:31:00Z,36.5110603,-117.410592,1425,38,0,6,27,"Inyo County, California",146,155,1085,2201,13204,0.10792184186610118,0.0028779157830960316,9617,0.7283398970009088,3587,0.27166010299909116,1386,0.10496819145713421
50,US,California,"Del Norte County, California",2021-05-06T16:31:00Z,41.74317575,-123.89711070000001,1363,7,0,6,15,"Del Norte County, California",243,270,683,1711,19644,0.06938505396049684,0.0003563429036856037,16737,0.8520158827122786,2907,0.14798411728772143,1196,0.0608837304011403
51,US,California,"Mono County, California",2021-05-06T16:31:00Z,37.93749777,-118.8838882,1279,4,0,6,51,"Mono County, California",121,167,489,2084,9927,0.12884053591215877,0.0004029414727510829,7066,0.711796111614788,2861,0.28820388838521205,777,0.07827138108189785
52,US,California,"Plumas County, California",2021-05-06T16:31:00Z,40.00070236,-120.8334983,704,6,0,6,63,"Plumas County, California",43,161,1087,2141,14479,0.04862214241315008,0.0004143932592029836,11047,0.7629670557358934,3432,0.23703294426410665,1291,0.08916361627184198
53,US,California,"Modoc County, California",2021-05-06T16:31:00Z,41.57651716400005,-120.73684738599995,494,4,0,6,49,"Modoc County, California",11,80,295,638,6740,0.07329376854599406,0.0005934718100890207,5716,0.8480712166172106,1024,0.1519287833827893,386,0.0572700296735905
54,US,California,"Mariposa County, California",2021-05-06T16:31:00Z,37.58147049,-119.90545139999999,445,7,0,6,43,"Mariposa County, California",162,224,793,2169,13632,0.03264377934272301,0.0005134976525821597,10284,0.7544014084507042,3348,0.24559859154929578,1179,0.08648767605633803
55,US,California,"Trinity County, California",2021-05-06T16:31:00Z,40.65065829,-123.11263500000001,399,5,0,6,105,"Trinity County, California",30,62,419,1411,9847,0.04051995531634,0.0005077688636132832,7925,0.804813648827054,1922,0.19518635117294608,511,0.05189397786127754
56,US,California,"Sierra County, California",2021-05-06T16:31:00Z,39.58038432,-120.5160202,112,0,0,6,91,"Sierra County, California",17,81,131,205,2420,0.04628099173553719,0.0,1986,0.8206611570247934,434,0.1793388429752066,229,0.09462809917355372
57,US,California,"Alpine County, California",2021-05-06T16:31:00Z,38.59733305,-119.82042129999999,88,0,0,6,3,"Alpine County, California",22,23,58,163,770,0.11428571428571428,0.0,504,0.6545454545454545,266,0.34545454545454546,103,0.13376623376623376
58,US,Texas,"Dallas County, Texas",2021-05-06T16:31:00Z,32.778220000000005,-96.79512,299581,3995,0,48,113,"Dallas County, Texas",16289,37466,138813,332957,1669564,0.1794366672975699,0.002392840286446042,1144039,0.6852321923568069,525525,0.31476780764319306,192568,0.1153402924356299
59,US,Texas,"Tarrant County, Texas",2021-05-06T16:31:00Z,32.8173,-97.07655,257609,3427,0,48,439,"Tarrant County, Texas",14114,19371,106042,284540,1314012,0.19604767688575142,0.002608043153334977,889945,0.6772731147051929,424067,0.32272688529480703,139527,0.10618396179030329
60,US,Texas,"Bexar County, Texas",2021-05-06T16:31:00Z,29.44892069,-98.52000770000001,218831,3494,0,48,29,"Bexar County, Texas",13327,22648,92049,221427,1247428,0.17542575603561888,0.0028009632620079076,897977,0.7198627896760375,349451,0.2801372103239626,128024,0.10263037225394973
61,US,Texas,"El Paso County, Texas",2021-05-06T16:31:00Z,31.759159999999998,-106.48749,134488,2664,0,48,141,"El Paso County, Texas",3562,5527,29476,80497,510680,0.2633508263491815,0.00521657397979165,391618,0.766855956763531,119062,0.23314404323646903,38565,0.07551695778178115
62,US,Texas,"Collin County, Texas",2021-05-06T16:31:00Z,33.1968,-96.80393000000001,90273,822,0,48,85,"Collin County, Texas",10552,16978,94616,212007,638328,0.14142102492762343,0.001287739218708877,304175,0.47651834166760665,334153,0.5234816583323934,122146,0.19135303480342394
63,US,Texas,"Hidalgo County, Texas",2021-05-06T16:31:00Z,26.39702985,-98.18094296,89037,2830,0,48,215,"Hidalgo County, Texas",2642,3733,20013,63264,479260,0.18578016108166756,0.005904936777532029,389608,0.8129366106080207,89652,0.1870633893919793,26388,0.05505988398781455
64,US,Texas,"Travis County, Texas",2021-05-06T16:31:00Z,30.33462266,-97.78218981,82566,1000,0,48,453,"Travis County, Texas",19546,26783,107734,267297,843030,0.09793957510408882,0.0011861974069724683,421670,0.5001838605980807,421360,0.49981613940191927,154063,0.1827491311103994
65,US,Texas,"Denton County, Texas",2021-05-06T16:31:00Z,33.216590000000004,-97.13162,74696,748,0,48,121,"Denton County, Texas",7319,9742,63981,165827,547409,0.1364537302090393,0.0013664371612450653,300540,0.5490227599473154,246869,0.4509772400526846,81042,0.14804652462783768
66,US,Texas,"Fort Bend County, Texas",2021-05-06T16:31:00Z,29.52745252,-95.77065084,67363,663,0,48,157,"Fort Bend County, Texas",11940,10655,66049,137933,490211,0.1374163370467003,0.0013524788305443983,263634,0.5377969894596408,226577,0.46220301054035917,88644,0.18082825558789992
67,US,Texas,"Montgomery County, Texas",2021-05-06T16:31:00Z,30.38862,-95.69633,52938,563,0,48,339,"Montgomery County, Texas",4792,6725,31463,85948,373374,0.14178277009111506,0.0015078714640012426,244446,0.654694756464028,128928,0.345305243535972,42980,0.11511246096407356
68,US,Texas,"Lubbock County, Texas",2021-05-06T16:31:00Z,33.61019304,-101.8204416,48985,785,0,48,303,"Lubbock County, Texas",3452,2917,13916,33961,180052,0.27206029369293316,0.004359851598427121,125806,0.6987203696709839,54246,0.30127963032901606,20285,0.11266189767400529
69,US,Texas,"Williamson County, Texas",2021-05-06T16:31:00Z,30.64806761,-97.60077209,45759,464,0,48,491,"Williamson County, Texas",4422,6190,39848,99134,362078,0.12637884654687664,0.001281491833251399,212484,0.58684592822541,149594,0.41315407177459,50460,0.13936223686608962
70,US,Texas,"Webb County, Texas",2021-05-06T16:31:00Z,27.7925,-99.4228,43931,835,0,48,479,"Webb County, Texas",601,1130,6233,20686,151324,0.2903108561761518,0.00551796146017816,122674,0.8106711427136475,28650,0.18932885728635246,7964,0.052628796489651346
71,US,Texas,"Nueces County, Texas",2021-05-06T16:31:00Z,27.7262373,-97.61348194,41993,806,0,48,355,"Nueces County, Texas",2318,2917,12695,33515,235560,0.1782688062489387,0.0034216335540838854,184115,0.7816055357446086,51445,0.2183944642553914,17930,0.076116488368144
72,US,Texas,"Cameron County, Texas",2021-05-06T16:31:00Z,26.13597462,-97.52423968,40507,1634,0,48,61,"Cameron County, Texas",1390,2028,9510,29859,246971,0.16401520826331836,0.006616161411663718,204184,0.8267529386041276,42787,0.1732470613958724,12928,0.05234622688493791
73,US,Texas,"Galveston County, Texas",2021-05-06T16:31:00Z,29.29532,-94.80790999999999,39243,414,0,48,167,"Galveston County, Texas",3595,4186,15991,45665,223167,0.17584589119359045,0.0018551129871351947,153730,0.6888563273243804,69437,0.3111436726756196,23772,0.1065211254352122
74,US,Texas,"Brazoria County, Texas",2021-05-06T16:31:00Z,29.049709999999997,-95.56200000000001,37422,492,0,48,39,"Brazoria County, Texas",3656,4573,16253,46212,235400,0.15897196261682242,0.0020900594732370433,164706,0.6996856414613424,70694,0.3003143585386576,24482,0.1040016992353441
75,US,Texas,"McLennan County, Texas",2021-05-06T16:31:00Z,31.55234029,-97.20180587,27043,470,0,48,309,"McLennan County, Texas",2105,1847,9371,23598,152262,0.177608333004952,0.0030867846212449595,115341,0.7575166489340741,36921,0.24248335106592583,13323,0.08750049257201403
76,US,Texas,"Brazos County, Texas",2021-05-06T16:31:00Z,30.66048584,-96.30207301,26496,249,0,48,41,"Brazos County, Texas",7154,3029,12845,26411,118579,0.22344597272704272,0.0020998659121766925,69140,0.583071201477496,49439,0.416928798522504,23028,0.19419964749238905
77,US,Texas,"Ellis County, Texas",2021-05-06T16:31:00Z,32.34839289,-96.79460418,22727,311,0,48,139,"Ellis County, Texas",594,1017,6788,18794,111737,0.20339726321630255,0.0027833215497104808,84544,0.7566338813463759,27193,0.24336611865362415,8399,0.0751675810161361
78,US,Texas,"Bell County, Texas",2021-05-06T16:31:00Z,31.03765881,-97.47807382,22426,430,0,48,27,"Bell County, Texas",1647,3125,13677,34751,211519,0.10602357235047442,0.00203291430084295,158319,0.7484859516166397,53200,0.25151404838336033,18449,0.08722147892151533
79,US,Texas,"Hays County, Texas",2021-05-06T16:31:00Z,30.1227,-97.8722,20546,241,0,48,209,"Hays County, Texas",2247,1680,12461,31235,127858,0.16069389478953214,0.0018849035648923025,80235,0.6275321059300161,47623,0.3724678940699839,16388,0.12817344241267656
80,US,Texas,"Smith County, Texas",2021-05-06T16:31:00Z,32.37505601,-95.26910259,20206,468,0,48,423,"Smith County, Texas",1602,2544,8718,26482,148915,0.13568814424336031,0.003142732431252728,109569,0.7357821576066884,39346,0.26421784239331164,12864,0.0863848504180237
81,US,Texas,"Johnson County, Texas",2021-05-06T16:31:00Z,32.37899029,-97.36641179,19749,367,0,48,251,"Johnson County, Texas",692,817,4463,14459,109104,0.18101077870655521,0.003363763015104854,88673,0.8127383047367649,20431,0.18726169526323508,5972,0.054736764921542745
82,US,Texas,"Jefferson County, Texas",2021-05-06T16:31:00Z,29.88366401,-94.16922753,19646,422,0,48,245,"Jefferson County, Texas",1308,1742,7549,22617,169034,0.11622513813788941,0.002496539157802572,135818,0.8034951548209236,33216,0.1965048451790764,10599,0.06270336145390869
83,US,Texas,"Midland County, Texas",2021-05-06T16:31:00Z,31.86932499,-102.0314523,17433,266,0,48,329,"Midland County, Texas",607,1528,6087,20563,105138,0.16581064886149632,0.002530008179725694,76353,0.7262169719796838,28785,0.2737830280203162,8222,0.07820198215678442
84,US,Texas,"Potter County, Texas",2021-05-06T16:31:00Z,35.40127385,-101.8939736,17361,448,0,48,375,"Potter County, Texas",407,672,2386,7810,75714,0.22929709168713844,0.0059170034603904164,64439,0.8510843437145046,11275,0.1489156562854954,3465,0.045764323638957126
85,US,Texas,"Ector County, Texas",2021-05-06T16:31:00Z,31.86911555,-102.5428458,17213,368,0,48,135,"Ector County, Texas",433,834,3058,10362,95420,0.1803919513728778,0.003856633829385873,80733,0.846080486271222,14687,0.15391951372877805,4325,0.045325927478516034
86,US,Texas,"Tom Green County, Texas",2021-05-06T16:31:00Z,31.40442601,-100.4619795,16786,301,0,48,451,"Tom Green County, Texas",798,971,4560,12152,75581,0.22209285402415951,0.003982482369907781,57100,0.7554808748230375,18481,0.24451912517696248,6329,0.08373797647556926
87,US,Texas,"Randall County, Texas",2021-05-06T16:31:00Z,34.96596461,-101.896888,16733,296,0,48,381,"Randall County, Texas",1078,1341,6319,19921,88390,0.18930874533318248,0.0033487951125692954,59731,0.6757664894218803,28659,0.3242335105781197,8738,0.09885733680280574
88,US,Texas,"Kaufman County, Texas",2021-05-06T16:31:00Z,32.60298369,-96.28946607,15992,256,0,48,257,"Kaufman County, Texas",614,375,4330,10986,79429,0.20133704314545064,0.003223004192423422,63124,0.7947223306349066,16305,0.20527766936509334,5319,0.06696546601367259
89,US,Texas,"Taylor County, Texas",2021-05-06T16:31:00Z,32.30139883,-99.8899813,15781,407,0,48,441,"Taylor County, Texas",880,1176,5367,13661,83518,0.18895327953255586,0.004873200986613664,62434,0.7475514260398956,21084,0.2524485739601044,7423,0.08887904403841088
90,US,Texas,"Parker County, Texas",2021-05-06T16:31:00Z,32.77771907,-97.80511717,15679,180,0,48,367,"Parker County, Texas",723,904,6204,15879,89787,0.1746243888313453,0.0020047445621303754,66077,0.7359305912882711,23710,0.26406940871172885,7831,0.08721752592246093
91,US,Texas,"Wichita County, Texas",2021-05-06T16:31:00Z,33.98410156,-98.70169462,14971,376,0,48,485,"Wichita County, Texas",502,1071,5057,12825,84301,0.1775898269296924,0.004460208063961282,64846,0.7692198194564714,19455,0.23078018054352856,6630,0.07864675389378536
92,US,Texas,"Guadalupe County, Texas",2021-05-06T16:31:00Z,29.58309666,-97.94865645,14696,211,0,48,187,"Guadalupe County, Texas",920,965,8608,18958,104489,0.14064638382987682,0.0020193513192776273,75038,0.7181425796016806,29451,0.28185742039831946,10493,0.10042205399611442
93,US,Texas,"Rockwall County, Texas",2021-05-06T16:31:00Z,32.89767022,-96.40784140000001,11481,155,0,48,397,"Rockwall County, Texas",1072,1408,6984,16204,63085,0.18199254973448523,0.002457002457002457,37417,0.5931203931203931,25668,0.4068796068796069,9464,0.15001981453594357
94,US,Texas,"Grayson County, Texas",2021-05-06T16:31:00Z,33.61833228,-96.67387872,11285,340,0,48,181,"Grayson County, Texas",654,980,4128,12286,88311,0.12778702539887443,0.003850030007586824,70263,0.7956313483031558,18048,0.2043686516968441,5762,0.06524668501092729
95,US,Texas,"Gregg County, Texas",2021-05-06T16:31:00Z,32.48062462,-94.81699103,11120,353,0,48,183,"Gregg County, Texas",492,1082,3900,11534,79821,0.13931170995101538,0.004422395109056514,62813,0.7869232407511808,17008,0.21307675924881922,5474,0.068578444269052
96,US,Texas,"Maverick County, Texas",2021-05-06T16:31:00Z,28.74301122,-100.3142594,10436,356,0,48,323,"Maverick County, Texas",1,201,713,3254,32840,0.31778319123020704,0.010840438489646772,28671,0.8730511571254568,4169,0.12694884287454325,915,0.027862362971985383
97,US,Texas,"Comal County, Texas",2021-05-06T16:31:00Z,29.80818438,-98.2781952,10394,317,0,48,91,"Comal County, Texas",1054,1599,9831,23881,98736,0.1052706206449522,0.003210581753362502,62371,0.631694619996759,36365,0.368305380003241,12484,0.126438178577216
98,US,Texas,"Starr County, Texas",2021-05-06T16:31:00Z,26.56239356,-98.7374609,9497,297,0,48,427,"Starr County, Texas",86,98,794,2537,35597,0.2667921454055117,0.008343399724695902,32082,0.9012557237969492,3515,0.09874427620305082,978,0.02747422535606933
99,US,Texas,"Bastrop County, Texas",2021-05-06T16:31:00Z,30.10364375,-97.31201151,9395,92,0,48,21,"Bastrop County, Texas",564,419,2646,7856,55546,0.1691390919238109,0.0016562848809995318,44061,0.7932344363230476,11485,0.20676556367695242,3629,0.06533323731681849
100,US,Texas,"Walker County, Texas",2021-05-06T16:31:00Z,30.73898292,-95.57222968,8844,126,0,48,471,"Walker County, Texas",599,331,2071,6700,46597,0.18979762645663883,0.002704036740562697,36896,0.7918106315857244,9701,0.2081893684142756,3001,0.06440328776530678
101,US,Texas,"Victoria County, Texas",2021-05-06T16:31:00Z,28.79640375,-96.97175516,8634,208,0,48,469,"Victoria County, Texas",586,536,2836,8075,60252,0.14329814777932684,0.0034521675629024763,48219,0.8002887870942044,12033,0.19971121290579566,3958,0.06569076545176923
102,US,Texas,"Angelina County, Texas",2021-05-06T16:31:00Z,31.25730151,-94.63261756,8545,279,0,48,5,"Angelina County, Texas",242,486,2553,6413,57275,0.14919249236141424,0.004871235268441729,47581,0.8307463989524225,9694,0.16925360104757747,3281,0.05728502837189001
103,US,Texas,"Orange County, Texas",2021-05-06T16:31:00Z,30.128079800000002,-93.89665964,8460,146,0,48,361,"Orange County, Texas",117,209,1386,6996,56139,0.15069737615561374,0.0026006875790448706,47431,0.8448850175457346,8708,0.1551149824542653,1712,0.03049573380359465
104,US,Texas,"Val Verde County, Texas",2021-05-06T16:31:00Z,26.17619,-98.08112,7855,220,0,48,465,"Val Verde County, Texas",113,240,1272,3800,29502,0.26625313538065215,0.007457121551081283,24077,0.8161141617517457,5425,0.18388583824825436,1625,0.05508101145685038
105,US,Texas,"Liberty County, Texas",2021-05-06T16:31:00Z,30.15168965,-94.81217381,7821,183,0,48,291,"Liberty County, Texas",64,136,1387,3692,54264,0.14412870411322423,0.003372401592215834,48985,0.9027163496977738,5279,0.09728365030222616,1587,0.02924590888987174
106,US,Texas,"Wise County, Texas",2021-05-06T16:31:00Z,33.21586139,-97.65438192,7311,121,0,48,497,"Wise County, Texas",235,152,1574,6042,44452,0.1644695401781697,0.0027220372536668766,36449,0.8199631062719338,8003,0.18003689372806622,1961,0.04411500044992351
107,US,Texas,"Coryell County, Texas",2021-05-06T16:31:00Z,31.39084072,-97.79914193,7242,86,0,48,99,"Coryell County, Texas",149,190,2013,5329,47776,0.15158238446081715,0.0018000669792364366,40095,0.8392289015405224,7681,0.16077109845947757,2352,0.049229738780977896
108,US,Texas,"Bowie County, Texas",2021-05-06T16:31:00Z,33.559,-97.8486,6954,214,0,48,37,"Bowie County, Texas",342,819,3266,8614,63248,0.10994814065266886,0.003383506197824437,50207,0.7938116620288389,13041,0.20618833797116115,4427,0.06999430812041488
109,US,Texas,"Hood County, Texas",2021-05-06T16:31:00Z,32.42998661,-97.83217761,6534,129,0,48,221,"Hood County, Texas",387,557,3028,7137,42070,0.1553125742809603,0.0030663180413596385,30961,0.7359400998336106,11109,0.26405990016638936,3972,0.09441407178512004
110,US,Texas,"Anderson County, Texas",2021-05-06T16:31:00Z,31.81320101,-95.65250749,6129,121,0,48,1,"Anderson County, Texas",226,178,1190,2870,42073,0.14567537375513986,0.002875953699522259,37609,0.8938986998787821,4464,0.10610130012121788,1594,0.03788653055403703
111,US,Texas,"Hale County, Texas",2021-05-06T16:31:00Z,34.07052809,-101.8268085,6116,155,0,48,189,"Hale County, Texas",167,88,906,2417,20884,0.2928557747557939,0.007421949818042521,17306,0.8286726680712507,3578,0.17132733192874927,1161,0.05559279831449914
112,US,Texas,"Hunt County, Texas",2021-05-06T16:31:00Z,33.13330985,-96.08803634,5955,168,0,48,231,"Hunt County, Texas",736,351,3269,8000,62076,0.09593079450995554,0.0027063599458728013,49720,0.8009536696952123,12356,0.1990463303047877,4356,0.07017204716798763
113,US,Texas,"Henderson County, Texas",2021-05-06T16:31:00Z,32.20986317,-95.84344062,5864,184,0,48,213,"Henderson County, Texas",175,325,2873,6553,57241,0.10244405234010587,0.003214479132090634,47315,0.8265928268199367,9926,0.17340717318006324,3373,0.0589262940899006
114,US,Texas,"Lamar County, Texas",2021-05-06T16:31:00Z,33.66742106,-95.57087079,5823,155,0,48,277,"Lamar County, Texas",118,320,1519,4362,33821,0.17217113627627806,0.00458295142071494,27502,0.8131634191774342,6319,0.18683658082256585,1957,0.057863457615091214
115,US,Texas,"Navarro County, Texas",2021-05-06T16:31:00Z,32.0498125,-96.48283409,5788,154,0,48,349,"Navarro County, Texas",103,186,1464,3333,31966,0.18106738409560158,0.004817618719889883,26880,0.8408934492898705,5086,0.15910655071012952,1753,0.054839516986798474
116,US,Texas,"Atascosa County, Texas",2021-05-06T16:31:00Z,28.89353491,-98.52710951,5760,150,0,48,13,"Atascosa County, Texas",98,122,1120,3193,31431,0.18325856638350674,0.004772358499570487,26898,0.8557793261429799,4533,0.14422067385702014,1340,0.04263306926282969
117,US,Texas,"Hardin County, Texas",2021-05-06T16:31:00Z,30.33236369,-94.39028561,5711,111,0,48,199,"Hardin County, Texas",223,150,1449,4624,38280,0.1491901776384535,0.0028996865203761756,31834,0.8316091954022988,6446,0.16839080459770114,1822,0.04759665621734587
118,US,Texas,"Caldwell County, Texas",2021-05-06T16:31:00Z,29.83712413,-97.61996606,5593,97,0,48,55,"Caldwell County, Texas",55,69,997,2874,27299,0.20487929960804424,0.0035532437085607532,23304,0.8536576431371112,3995,0.14634235686288874,1121,0.0410637752298619
119,US,Texas,"Medina County, Texas",2021-05-06T16:31:00Z,29.35563822,-99.11002449,4998,103,0,48,325,"Medina County, Texas",107,160,2159,4245,33616,0.14867920038077106,0.003064017134697763,26945,0.8015528319847691,6671,0.19844716801523085,2426,0.07216801523084246
120,US,Texas,"Chambers County, Texas",2021-05-06T16:31:00Z,29.73914352,-94.60816907,4956,49,0,48,71,"Chambers County, Texas",148,312,1501,3980,26117,0.189761458054141,0.001876172607879925,20176,0.772523643603783,5941,0.22747635639621702,1961,0.0750851935520925
121,US,Texas,"Harrison County, Texas",2021-05-06T16:31:00Z,32.54669101,-94.37419702,4829,108,0,48,203,"Harrison County, Texas",269,440,1681,5984,43881,0.1100476288142932,0.0024612018869214465,35507,0.8091656981381463,8374,0.19083430186185366,2390,0.0544654862013172
122,US,Texas,"Burnet County, Texas",2021-05-06T16:31:00Z,30.78851107,-98.18240019,4737,64,0,48,53,"Burnet County, Texas",316,384,1863,5724,32637,0.14514201672947882,0.0019609645494377548,24350,0.7460857309188957,8287,0.25391426908110426,2563,0.07853050219076509
123,US,Texas,"Howard County, Texas",2021-05-06T16:31:00Z,32.30610786,-101.4354618,4640,101,0,48,227,"Howard County, Texas",51,213,753,2100,24691,0.18792272487951076,0.00409055931311004,21574,0.873759669515208,3117,0.12624033048479202,1017,0.04118909724191001
124,US,Texas,"Nacogdoches County, Texas",2021-05-06T16:31:00Z,31.62343014,-94.62108091,4516,169,0,48,347,"Nacogdoches County, Texas",668,468,2219,5874,37633,0.12000106289692557,0.004490739510535966,28404,0.7547631068477134,9229,0.24523689315228656,3355,0.08915047963223767
125,US,Texas,"Kerr County, Texas",2021-05-06T16:31:00Z,30.06149667,-99.35021453,4492,88,0,48,265,"Kerr County, Texas",575,461,2663,6590,37607,0.11944584784747521,0.0023399898954981784,27318,0.7264073177865823,10289,0.2735926822134177,3699,0.09835934799372457
126,US,Texas,"Hill County, Texas",2021-05-06T16:31:00Z,31.99068984,-97.13244714,4489,108,0,48,217,"Hill County, Texas",83,212,1048,2896,24415,0.1838623796846201,0.004423510137210731,20176,0.8263772271144788,4239,0.1736227728855212,1343,0.055007167724759366
127,US,Texas,"Wilson County, Texas",2021-05-06T16:31:00Z,29.17400077,-98.08650902,4484,68,0,48,493,"Wilson County, Texas",331,121,1895,4850,33086,0.13552559995164118,0.002055249954663604,25889,0.7824759717100889,7197,0.21752402828991113,2347,0.07093634769993351
128,US,Texas,"San Patricio County, Texas",2021-05-06T16:31:00Z,27.95808,-97.77216999999999,4346,148,0,48,409,"San Patricio County, Texas",122,330,1436,4793,42864,0.10139044419559537,0.003452780888391191,36183,0.8441349384098544,6681,0.15586506159014557,1888,0.04404628592758492
129,US,Texas,"Van Zandt County, Texas",2021-05-06T16:31:00Z,32.56229951,-95.83587208,4296,117,0,48,467,"Van Zandt County, Texas",74,161,1363,4411,38152,0.11260222268819459,0.003066680645837702,32143,0.8424984273432585,6009,0.15750157265674145,1598,0.041885091214091
130,US,Texas,"Jim Wells County, Texas",2021-05-06T16:31:00Z,27.73131457,-98.08982112,4266,101,0,48,249,"Jim Wells County, Texas",56,92,559,2424,25700,0.16599221789883267,0.003929961089494163,22569,0.8781712062256809,3131,0.12182879377431907,707,0.027509727626459143
131,US,Texas,"Brown County, Texas",2021-05-06T16:31:00Z,31.77427489,-98.99985028,4235,136,0,48,49,"Brown County, Texas",227,120,1039,3605,26066,0.1624721859894115,0.005217524744878386,21075,0.8085245146934704,4991,0.19147548530652958,1386,0.053172715414716486
132,US,Texas,"Erath County, Texas",2021-05-06T16:31:00Z,32.23626376,-98.21778772,4183,69,0,48,143,"Erath County, Texas",239,362,1637,5387,24233,0.1726158544134032,0.002847356909998762,16608,0.6853464284240498,7625,0.31465357157595014,2238,0.09235340238517724
133,US,Texas,"Cherokee County, Texas",2021-05-06T16:31:00Z,31.83697709,-95.16516716,4167,140,0,48,73,"Cherokee County, Texas",294,183,1331,4027,33977,0.12264178709126762,0.004120434411513671,28142,0.8282661800629838,5835,0.17173381993701622,1808,0.053212467257262266
134,US,Texas,"Waller County, Texas",2021-05-06T16:31:00Z,30.0107507,-95.98760507,4116,46,0,48,473,"Waller County, Texas",162,212,1442,4218,28580,0.14401679496151154,0.001609517144856543,22546,0.7888733379986004,6034,0.21112666200139957,1816,0.0635409377186844
135,US,Texas,"Wharton County, Texas",2021-05-06T16:31:00Z,29.27780211,-96.22208396,4098,115,0,48,481,"Wharton County, Texas",191,103,1350,3217,26990,0.15183401259725823,0.0042608373471656165,22129,0.8198962578732863,4861,0.1801037421267136,1644,0.060911448684698034
136,US,Texas,"Washington County, Texas",2021-05-06T16:31:00Z,37.65871,-85.13231999999998,4047,93,0,48,477,"Washington County, Texas",266,327,1281,4410,23488,0.1723007493188011,0.003959468664850137,17204,0.7324591280653951,6284,0.2675408719346049,1874,0.07978542234332425
137,US,Texas,"Matagorda County, Texas",2021-05-06T16:31:00Z,28.691229999999997,-95.96755,4037,109,0,48,321,"Matagorda County, Texas",89,148,902,3064,24102,0.16749647332171605,0.0045224462700190855,19899,0.8256161314413741,4203,0.17438386855862584,1139,0.04725748900506182
138,US,Texas,"Rusk County, Texas",2021-05-06T16:31:00Z,31.796,-95.1502,3947,107,0,48,401,"Rusk County, Texas",94,152,1624,3830,36843,0.10713025540808295,0.0029042151833455474,31143,0.8452894715414054,5700,0.15471052845859457,1870,0.0507559102136091
139,US,Texas,"Cooke County, Texas",2021-05-06T16:31:00Z,33.64127265,-97.21703483,3714,72,0,48,97,"Cooke County, Texas",114,303,1422,3800,27025,0.13742830712303422,0.002664199814986124,21386,0.7913413506012951,5639,0.2086586493987049,1839,0.06804810360777058
140,US,Texas,"Titus County, Texas",2021-05-06T16:31:00Z,33.21641768,-94.96537845,3708,84,0,48,449,"Titus County, Texas",84,129,739,2301,19904,0.18629421221864953,0.0042202572347266884,16651,0.8365655144694534,3253,0.16343448553054662,952,0.04782958199356913
141,US,Texas,"Grimes County, Texas",2021-05-06T16:31:00Z,30.54365581,-95.98530182,3693,69,0,48,185,"Grimes County, Texas",98,114,926,1881,19186,0.19248410299176483,0.0035963723548420724,16167,0.8426456791410404,3019,0.15735432085895965,1138,0.05931408318565621
142,US,Texas,"Uvalde County, Texas",2021-05-06T16:31:00Z,29.35736353,-99.76218986,3574,72,0,48,463,"Uvalde County, Texas",144,15,494,2343,16740,0.21350059737156513,0.004301075268817204,13744,0.8210274790919952,2996,0.17897252090800478,653,0.03900836320191159
143,US,Texas,"Bee County, Texas",2021-05-06T16:31:00Z,28.41736435,-97.74112569,3494,72,0,48,25,"Bee County, Texas",140,188,507,1131,22009,0.15875323731200872,0.003271388977236585,20043,0.9106729065382344,1966,0.08932709346176564,835,0.037939024944340954
144,US,Texas,"Fannin County, Texas",2021-05-06T16:31:00Z,33.59309617,-96.10695931,3488,108,0,48,147,"Fannin County, Texas",250,141,1149,2684,24275,0.14368692070030897,0.004449021627188465,20051,0.8259938208032955,4224,0.17400617919670444,1540,0.06343975283213182
145,US,Texas,"Wood County, Texas",2021-05-06T16:31:00Z,32.78211328,-95.37213602,3424,128,0,48,499,"Wood County, Texas",93,261,1224,3788,32254,0.1061573758293545,0.003968500031003907,26888,0.8336330377627581,5366,0.1663669622372419,1578,0.04892416444472004
146,US,Texas,"Kendall County, Texas",2021-05-06T16:31:00Z,29.94467657,-98.71160748,3299,72,0,48,259,"Kendall County, Texas",493,808,3219,8070,29910,0.11029755934470077,0.002407221664994985,17320,0.5790705449682381,12590,0.42092945503176193,4520,0.1511200267469074
147,US,Texas,"Polk County, Texas",2021-05-06T16:31:00Z,30.79487495,-94.81733825,3282,114,0,48,373,"Polk County, Texas",100,188,1034,3296,35202,0.0932333390148287,0.003238452360661326,30584,0.8688142719163684,4618,0.1311857280836316,1322,0.03755468439293222
148,US,Texas,"Upshur County, Texas",2021-05-06T16:31:00Z,32.7363127,-94.94142272,3260,74,0,48,459,"Upshur County, Texas",65,135,1127,3441,27897,0.11685844356023946,0.002652614976520773,23129,0.829085564756067,4768,0.17091443524393304,1327,0.0475678388357171
149,US,Texas,"Hopkins County, Texas",2021-05-06T16:31:00Z,33.14926045,-95.5636767,3088,109,0,48,223,"Hopkins County, Texas",134,155,1127,3501,24497,0.12605625178593297,0.004449524431563048,19580,0.7992815446789403,4917,0.20071845532105972,1416,0.05780299628525942
150,US,Texas,"Willacy County, Texas",2021-05-06T16:31:00Z,26.47115592,-97.64817396,2966,88,0,48,489,"Willacy County, Texas",14,31,267,866,13296,0.2230746089049338,0.006618531889290012,12118,0.9114019253910951,1178,0.08859807460890494,312,0.023465703971119134
151,US,Texas,"Palo Pinto County, Texas",2021-05-06T16:31:00Z,32.76798,-98.29969,2891,75,0,48,363,"Palo Pinto County, Texas",75,126,753,2269,19449,0.14864517455910328,0.0038562393953416626,16226,0.834284539050851,3223,0.16571546094914905,954,0.04905136510874595
152,US,Texas,"Frio County, Texas",2021-05-06T16:31:00Z,28.86770959,-99.10822665,2827,50,0,48,163,"Frio County, Texas",116,57,253,481,12449,0.22708651297292956,0.0040163868583822,11542,0.9271427423889469,907,0.07285725761105309,426,0.03421961603341634
153,US,Texas,"Hockley County, Texas",2021-05-06T16:31:00Z,33.60748276,-102.34303320000001,2819,103,0,48,219,"Hockley County, Texas",87,62,539,1589,14392,0.19587270705947749,0.007156753752084491,12115,0.841787103946637,2277,0.15821289605336297,688,0.04780433574207893
154,US,Texas,"Deaf Smith County, Texas",2021-05-06T16:31:00Z,34.96599069,-102.60477540000001,2810,66,0,48,117,"Deaf Smith County, Texas",14,60,224,1020,10999,0.25547777070642785,0.00600054550413674,9681,0.8801709246295117,1318,0.11982907537048823,298,0.027093372124738613
155,US,Texas,"Limestone County, Texas",2021-05-06T16:31:00Z,31.54539187,-96.58049287,2774,76,0,48,293,"Limestone County, Texas",65,60,517,1760,16201,0.17122399851860995,0.004691068452564656,13799,0.8517375470649959,2402,0.148262452935004,642,0.03962718350719092
156,US,Texas,"Jones County, Texas",2021-05-06T16:31:00Z,32.73977974,-99.87857340000001,2755,55,0,48,253,"Jones County, Texas",29,37,315,1343,14710,0.18728755948334466,0.0037389530931339226,12986,0.882800815771584,1724,0.11719918422841605,381,0.025900747790618628
157,US,Texas,"Gonzales County, Texas",2021-05-06T16:31:00Z,29.45673157,-97.49257797,2739,57,0,48,177,"Gonzales County, Texas",51,51,375,1271,13376,0.20476973684210525,0.004261363636363636,11628,0.8693181818181818,1748,0.13068181818181818,477,0.035660885167464115
158,US,Texas,"Fayette County, Texas",2021-05-06T16:31:00Z,29.87685606,-96.91966842,2710,61,0,48,149,"Fayette County, Texas",102,112,731,2652,18267,0.14835495702633164,0.003339355121256911,14670,0.8030875348989982,3597,0.1969124651010018,945,0.05173263261619313
159,US,Texas,"Kleberg County, Texas",2021-05-06T16:31:00Z,27.43353551,-97.73255395,2639,93,0,48,273,"Kleberg County, Texas",147,159,900,3022,17183,0.1535820287493453,0.005412326136297503,12955,0.7539428504917651,4228,0.24605714950823487,1206,0.07018564860618053
160,US,Texas,"Gillespie County, Texas",2021-05-06T16:31:00Z,30.31802585,-98.94627637,2553,50,0,48,171,"Gillespie County, Texas",114,368,1282,4465,19327,0.1320949966368293,0.002587054379883065,13098,0.6777047653541678,6229,0.32229523464583226,1764,0.09127127852227454
161,US,Texas,"Milam County, Texas",2021-05-06T16:31:00Z,30.7863001,-96.97674797,2527,48,0,48,331,"Milam County, Texas",83,154,483,1630,16681,0.15148971884179604,0.0028775253282177326,14331,0.8591211558060068,2350,0.14087884419399316,720,0.04316287992326599
162,US,Texas,"Moore County, Texas",2021-05-06T16:31:00Z,35.83767359,-101.89287970000001,2526,72,0,48,341,"Moore County, Texas",27,51,557,1144,12470,0.2025661587810746,0.005773857257417803,10691,0.8573376102646352,1779,0.14266238973536488,635,0.050922213311948676
163,US,Texas,"Lavaca County, Texas",2021-05-06T16:31:00Z,29.38432888,-96.93010975,2477,76,0,48,285,"Lavaca County, Texas",30,48,438,1779,13782,0.17972718038020608,0.005514439123494413,11487,0.8334784501523727,2295,0.16652154984762735,516,0.03744013931214628
164,US,Texas,"Jasper County, Texas",2021-05-06T16:31:00Z,30.73721008,-94.02387685,2470,90,0,48,241,"Jasper County, Texas",19,164,942,1981,24038,0.10275397287627923,0.0037440718861802146,20932,0.8707879191280472,3106,0.12921208087195274,1125,0.046800898577252684
165,US,Texas,"Scurry County, Texas",2021-05-06T16:31:00Z,32.74630052,-100.91640509999999,2427,62,0,48,415,"Scurry County, Texas",67,117,414,1211,11141,0.2178439996409658,0.005565030069114083,9332,0.8376267839511713,1809,0.16237321604882865,598,0.05367561260210035
166,US,Texas,"Burleson County, Texas",2021-05-06T16:31:00Z,30.49243598,-96.62127937,2398,46,0,48,51,"Burleson County, Texas",73,57,467,1584,12622,0.18998573918554904,0.003644430359689431,10441,0.8272064649025511,2181,0.1727935350974489,597,0.04729836792901283
167,US,Texas,"Gray County, Texas",2021-05-06T16:31:00Z,35.40129425,-100.81242440000001,2313,56,0,48,179,"Gray County, Texas",11,147,490,1410,14794,0.15634716777071786,0.0037853183723131,12736,0.8608895498174935,2058,0.13911045018250642,648,0.0438015411653373
168,US,Texas,"Calhoun County, Texas",2021-05-06T16:31:00Z,28.48708494,-96.64640773,2294,23,0,48,57,"Calhoun County, Texas",85,50,598,1310,14380,0.15952712100139083,0.001599443671766342,12337,0.8579276773296245,2043,0.14207232267037553,733,0.050973574408901254
169,US,Texas,"Lamb County, Texas",2021-05-06T16:31:00Z,34.0685977,-102.3516334,2286,82,0,48,279,"Lamb County, Texas",17,26,266,887,8329,0.27446272061471966,0.009845119462120303,7133,0.8564053307720014,1196,0.14359466922799857,309,0.037099291631648455
170,US,Texas,"Dimmit County, Texas",2021-05-06T16:31:00Z,28.42249934,-99.75685975,2249,32,0,48,127,"Dimmit County, Texas",27,73,198,579,6468,0.34771181199752627,0.004947433518862091,5591,0.8644094001236858,877,0.13559059987631417,298,0.046072974644403214
171,US,Texas,"Lee County, Texas",2021-05-06T16:31:00Z,30.31066462,-96.96567821,2189,39,0,48,287,"Lee County, Texas",29,47,422,1198,11592,0.18883712905452035,0.0033643892339544515,9896,0.8536922015182885,1696,0.14630779848171152,498,0.04296066252587992
172,US,Texas,"Lampasas County, Texas",2021-05-06T16:31:00Z,31.1962409,-98.24140876,2178,32,0,48,281,"Lampasas County, Texas",63,134,846,1882,14700,0.14816326530612245,0.0021768707482993197,11775,0.8010204081632653,2925,0.1989795918367347,1043,0.07095238095238095
173,US,Texas,"Young County, Texas",2021-05-06T16:31:00Z,33.17729201,-98.68842601,2164,44,0,48,503,"Young County, Texas",42,111,573,1676,12473,0.17349474865709932,0.0035276196584622787,10071,0.8074240359175819,2402,0.19257596408241803,726,0.05820572436462759
174,US,Texas,"Austin County, Texas",2021-05-06T16:31:00Z,29.88669551,-96.27745759,2147,34,0,48,15,"Austin County, Texas",140,206,1085,3408,20235,0.10610328638497653,0.0016802569804793674,15396,0.7608598962194217,4839,0.2391401037805782,1431,0.07071905114899926
175,US,Texas,"Robertson County, Texas",2021-05-06T16:31:00Z,31.02699864,-96.51276066,2122,41,0,48,395,"Robertson County, Texas",22,44,404,1400,11599,0.18294680575911718,0.003534787481679455,9729,0.8387792051038883,1870,0.16122079489611174,470,0.04052073454608156
176,US,Texas,"Karnes County, Texas",2021-05-06T16:31:00Z,28.90563081,-97.85942123,2102,37,0,48,255,"Karnes County, Texas",21,93,289,1237,10693,0.19657720003740764,0.0034602076124567475,9053,0.8466286355559712,1640,0.1533713644440288,403,0.03768820723838025
177,US,Texas,"Falls County, Texas",2021-05-06T16:31:00Z,31.25318333,-96.93577343,2087,32,0,48,145,"Falls County, Texas",25,49,244,1201,12209,0.17093947088213612,0.002621017282332705,10690,0.8755835858792694,1519,0.12441641412073061,318,0.02604635924318126
178,US,Texas,"Montague County, Texas",2021-05-06T16:31:00Z,33.6746124,-97.72473974,2084,71,0,48,337,"Montague County, Texas",74,124,530,1579,13632,0.1528755868544601,0.005208333333333333,11325,0.8307658450704225,2307,0.16923415492957747,728,0.0534037558685446
179,US,Texas,"Hutchinson County, Texas",2021-05-06T16:31:00Z,35.83997777,-101.3546564,2012,71,0,48,233,"Hutchinson County, Texas",38,103,287,1531,13977,0.14395077627530944,0.0050797739142877585,12018,0.8598411676325391,1959,0.14015883236746082,428,0.030621735708664236
180,US,Texas,"Madison County, Texas",2021-05-06T16:31:00Z,30.96554711,-95.9283315,1964,29,0,48,313,"Madison County, Texas",42,53,317,1023,9746,0.201518571721732,0.002975579725015391,8311,0.8527601067104453,1435,0.1472398932895547,412,0.04227375333470142
181,US,Texas,"DeWitt County, Texas",2021-05-06T16:31:00Z,29.08205895,-97.3568176,1932,59,0,48,123,"DeWitt County, Texas",90,79,324,1318,14385,0.1343065693430657,0.004101494612443518,12574,0.8741049704553354,1811,0.12589502954466458,493,0.03427181091414668
182,US,Texas,"Cass County, Texas",2021-05-06T16:31:00Z,33.0735188,-94.34505411,1918,82,0,48,67,"Cass County, Texas",77,151,914,2302,21061,0.0910688001519396,0.0038934523526898057,17617,0.8364750011870281,3444,0.16352499881297183,1142,0.054223446180143395
183,US,Texas,"Wilbarger County, Texas",2021-05-06T16:31:00Z,34.08017734,-99.24080972,1909,55,0,48,487,"Wilbarger County, Texas",26,48,255,1017,8856,0.21556007226738935,0.0062104787714543815,7510,0.8480126467931346,1346,0.1519873532068654,329,0.037149954832881665
184,US,Texas,"Freestone County, Texas",2021-05-06T16:31:00Z,31.70266446,-96.14935708,1895,50,0,48,161,"Freestone County, Texas",104,88,473,1461,13915,0.13618397412863817,0.0035932446999640674,11789,0.8472152353575279,2126,0.15278476464247215,665,0.0477901545095221
185,US,Texas,"Zavala County, Texas",2021-05-06T16:31:00Z,28.86616929,-99.76052829999999,1883,43,0,48,507,"Zavala County, Texas",0,16,214,540,7093,0.26547300155082476,0.0060623149584097,6323,0.8914422670238263,770,0.10855773297617369,230,0.03242633582405188
186,US,Texas,"Jackson County, Texas",2021-05-06T16:31:00Z,28.95558096,-96.57874644,1822,31,0,48,239,"Jackson County, Texas",47,53,328,1204,9862,0.18474954370310281,0.0031433786250253497,8230,0.834516325288988,1632,0.16548367471101197,428,0.043398904887446764
187,US,Texas,"Andrews County, Texas",2021-05-06T16:31:00Z,32.30502248,-102.6378207,1816,47,0,48,3,"Andrews County, Texas",30,115,347,814,10700,0.1697196261682243,0.004392523364485981,9394,0.8779439252336448,1306,0.12205607476635515,492,0.045981308411214956
188,US,Texas,"Reeves County, Texas",2021-05-06T16:31:00Z,31.32294987,-103.6930426,1776,43,0,48,389,"Reeves County, Texas",34,63,279,915,10500,0.16914285714285715,0.004095238095238095,9209,0.8770476190476191,1291,0.12295238095238095,376,0.03580952380952381
189,US,Texas,"Zapata County, Texas",2021-05-06T16:31:00Z,27.00998653,-99.16702509,1766,36,0,48,505,"Zapata County, Texas",0,48,51,834,8042,0.2195971151454862,0.004476498383486694,7109,0.8839840835613032,933,0.11601591643869684,99,0.012310370554588411
190,US,Texas,"Dawson County, Texas",2021-05-06T16:31:00Z,32.74256634,-101.9475345,1735,68,0,48,115,"Dawson County, Texas",2,21,180,948,8084,0.21462147451756555,0.008411677387431964,6933,0.857619990103909,1151,0.14238000989609104,203,0.025111331024245422
191,US,Texas,"Colorado County, Texas",2021-05-06T16:31:00Z,29.62086756,-96.52629253,1720,30,0,48,89,"Colorado County, Texas",141,245,448,2174,14338,0.11996094294880737,0.002092342028176873,11330,0.7902078393081322,3008,0.20979216069186776,834,0.05816710838331706
192,US,Texas,"Terry County, Texas",2021-05-06T16:31:00Z,33.1737093,-102.33494420000001,1692,56,0,48,445,"Terry County, Texas",16,58,163,673,7990,0.21176470588235294,0.007008760951188986,7080,0.886107634543179,910,0.11389236545682102,237,0.029662077596996246
193,US,Texas,"Shelby County, Texas",2021-05-06T16:31:00Z,31.79265177,-94.15604336,1676,67,0,48,419,"Shelby County, Texas",9,170,434,1628,16235,0.10323375423467816,0.004126886356636896,13994,0.8619648906683092,2241,0.1380351093316908,613,0.03775793039728981
194,US,Texas,"Bosque County, Texas",2021-05-06T16:31:00Z,31.90042609,-97.63441083,1666,33,0,48,35,"Bosque County, Texas",132,130,509,1824,13106,0.12711735083168016,0.0025179307187547686,10511,0.8019990843888295,2595,0.19800091561117045,771,0.05882801770181596
195,US,Texas,"Pecos County, Texas",2021-05-06T16:31:00Z,30.781019300000004,-102.7235403,1662,34,0,48,371,"Pecos County, Texas",2,67,337,631,10544,0.15762518968133535,0.0032245827010622154,9507,0.9016502276176024,1037,0.09834977238239757,406,0.038505311077389984
196,US,Texas,"Llano County, Texas",2021-05-06T16:31:00Z,30.70568237,-98.68396033,1656,51,0,48,299,"Llano County, Texas",78,290,834,3056,16841,0.09833145300160323,0.003028323733745027,12583,0.7471646576806603,4258,0.2528353423193397,1202,0.07137343388159847
197,US,Texas,"Houston County, Texas",2021-05-06T16:31:00Z,31.31765234,-95.42240553,1635,52,0,48,225,"Houston County, Texas",40,62,523,1910,16645,0.09822769600480624,0.0031240612796635627,14110,0.8477020126164013,2535,0.15229798738359868,625,0.037548813457494744
198,US,Texas,"Leon County, Texas",2021-05-06T16:31:00Z,31.29646612,-95.99552151,1629,43,0,48,289,"Leon County, Texas",4,41,394,1242,11969,0.1361015957891219,0.003592614253488178,10288,0.859553847439218,1681,0.14044615256078202,439,0.03667808505305372
199,US,Texas,"Panola County, Texas",2021-05-06T16:31:00Z,32.16228456,-94.305576,1604,75,0,48,365,"Panola County, Texas",133,124,463,1822,15741,0.10189949812591322,0.00476462740613684,13199,0.8385108951146687,2542,0.1614891048853313,720,0.045740423098913664
200,US,Texas,"Comanche County, Texas",2021-05-06T16:31:00Z,31.94808524,-98.55824957,1554,51,0,48,93,"Comanche County, Texas",99,46,476,1324,9571,0.1623654790513008,0.0053285968028419185,7626,0.7967819454602445,1945,0.2032180545397555,621,0.06488350224636924
201,US,Texas,"Nolan County, Texas",2021-05-06T16:31:00Z,32.30344861,-100.4060445,1533,51,0,48,353,"Nolan County, Texas",12,58,315,1058,9499,0.16138540899042003,0.00536898620907464,8056,0.8480892725550058,1443,0.1519107274449942,385,0.040530582166543844
202,US,Texas,"Gaines County, Texas",2021-05-06T16:31:00Z,32.74072696,-102.6349943,1440,43,0,48,165,"Gaines County, Texas",5,18,342,930,11319,0.12721971905645374,0.003798922166269105,10024,0.8855905998763142,1295,0.11440940012368583,365,0.03224666489972612
203,US,Texas,"Bandera County, Texas",2021-05-06T16:31:00Z,29.74720281,-99.24626773,1399,27,0,48,19,"Bandera County, Texas",123,177,931,2626,16904,0.08276147657359205,0.001597255087553242,13047,0.7718291528632276,3857,0.22817084713677235,1231,0.07282300047326076
204,US,Texas,"Childress County, Texas",2021-05-06T16:31:00Z,34.52925554,-100.2074984,1397,17,0,48,75,"Childress County, Texas",13,76,118,738,5178,0.2697952877558903,0.00328312089609888,4233,0.8174971031286211,945,0.1825028968713789,207,0.03997682502896872
205,US,Texas,"Eastland County, Texas",2021-05-06T16:31:00Z,32.32711371,-98.83236081,1351,48,0,48,133,"Eastland County, Texas",149,160,460,1228,12485,0.10820985182218662,0.003844613536243492,10488,0.8400480576692031,1997,0.15995194233079696,769,0.06159391269523428
206,US,Texas,"Tyler County, Texas",2021-05-06T16:31:00Z,30.77123251,-94.37653537,1318,38,0,48,457,"Tyler County, Texas",58,54,437,1477,15116,0.08719237893622651,0.0025138925641704155,13090,0.8659698332892299,2026,0.13403016671077003,549,0.036319132045514686
207,US,Texas,"Runnels County, Texas",2021-05-06T16:31:00Z,31.83113124,-99.97614368,1291,37,0,48,399,"Runnels County, Texas",18,49,218,996,7062,0.18280940243557067,0.005239308977626735,5781,0.8186066270178419,1281,0.18139337298215802,285,0.04035683942225998
208,US,Texas,"San Jacinto County, Texas",2021-05-06T16:31:00Z,29.296129999999998,-94.78312,1284,36,0,48,407,"San Jacinto County, Texas",101,119,518,1506,19953,0.06435122537964216,0.0018042399639152007,17709,0.8875357089159525,2244,0.11246429108404751,738,0.03698691926026162
209,US,Texas,"Parmer County, Texas",2021-05-06T16:31:00Z,34.53012116,-102.78453509999999,1269,36,0,48,369,"Parmer County, Texas",28,67,154,821,5989,0.21188846218066454,0.006011020203706796,4919,0.8213391217231591,1070,0.17866087827684088,249,0.04157622307563867
210,US,Texas,"Duval County, Texas",2021-05-06T16:31:00Z,27.68127828,-98.5088379,1249,41,0,48,131,"Duval County, Texas",0,17,226,396,7094,0.17606427967296306,0.005779531998872286,6455,0.909923879334649,639,0.090076120665351,243,0.034254299407950384
211,US,Texas,"Aransas County, Texas",2021-05-06T16:31:00Z,28.24597757,-97.04181750000001,1248,40,0,48,7,"Aransas County, Texas",176,313,999,2423,17878,0.06980646604765633,0.0022373867322966774,13967,0.7812395122496923,3911,0.21876048775030765,1488,0.0832307864414364
212,US,Texas,"Camp County, Texas",2021-05-06T16:31:00Z,32.97320594,-94.97857173,1244,42,0,48,63,"Camp County, Texas",66,59,425,1086,8448,0.14725378787878787,0.004971590909090909,6812,0.806344696969697,1636,0.19365530303030304,550,0.06510416666666667
213,US,Texas,"Callahan County, Texas",2021-05-06T16:31:00Z,32.29775015,-99.37351041,1187,39,0,48,59,"Callahan County, Texas",63,67,379,1561,9839,0.12064234170139242,0.003963817461124098,7769,0.7896127655249517,2070,0.21038723447504828,509,0.05173289968492733
214,US,Texas,"Ward County, Texas",2021-05-06T16:31:00Z,31.50939264,-103.10236440000001,1187,24,0,48,475,"Ward County, Texas",24,18,201,675,7369,0.16108020084136246,0.003256886958881802,6451,0.8754240738227711,918,0.12457592617722893,243,0.03297598045867825
215,US,Texas,"Ochiltree County, Texas",2021-05-06T16:31:00Z,36.27858856,-100.8155985,1143,27,0,48,357,"Ochiltree County, Texas",20,28,166,735,6071,0.18827211332564653,0.004447372755723934,5122,0.8436830835117773,949,0.15631691648822268,214,0.03524954702684895
216,US,Texas,"Live Oak County, Texas",2021-05-06T16:31:00Z,29.554029999999997,-98.32868,1129,22,0,48,297,"Live Oak County, Texas",24,51,248,734,8672,0.13018911439114392,0.00253690036900369,7615,0.8781134686346863,1057,0.12188653136531365,323,0.03724630996309963
217,US,Texas,"Somervell County, Texas",2021-05-06T16:31:00Z,32.22232117300007,-97.77429791799996,1078,14,0,48,425,"Somervell County, Texas",36,94,290,1230,6247,0.17256283015847607,0.002241075716343845,4597,0.7358732191451897,1650,0.2641267808548103,420,0.06723227149031535
218,US,Texas,"La Salle County, Texas",2021-05-06T16:31:00Z,28.79219,-96.66958000000001,1051,28,0,48,283,"La Salle County, Texas",0,0,65,327,5233,0.20084081788648958,0.005350659277660997,4841,0.925090770112746,392,0.07490922988725396,65,0.012421173323141601
219,US,Texas,"Clay County, Texas",2021-05-06T16:31:00Z,33.78376172,-98.20894301,1029,16,0,48,77,"Clay County, Texas",35,36,420,1124,7558,0.13614712887007144,0.0021169621593014024,5943,0.7863191320455147,1615,0.21368086795448532,491,0.06496427626356178
220,US,Texas,"Castro County, Texas",2021-05-06T16:31:00Z,34.52999459,-102.26167029999999,984,32,0,48,69,"Castro County, Texas",82,4,143,498,4661,0.21111349495816348,0.0068654795108345846,3934,0.8440248873632268,727,0.15597511263677322,229,0.049131087749409996
221,US,Texas,"Dallam County, Texas",2021-05-06T16:31:00Z,36.27778449,-102.6021265,966,24,0,48,111,"Dallam County, Texas",8,0,162,542,4511,0.21414320549767235,0.005320328086898692,3799,0.8421636000886721,712,0.15783639991132786,170,0.03768565728219907
222,US,Texas,"Brewster County, Texas",2021-05-06T16:31:00Z,29.812252,-103.25180859999999,928,16,0,48,43,"Brewster County, Texas",157,90,654,1821,6810,0.13627019089574155,0.0023494860499265785,4088,0.6002936857562409,2722,0.3997063142437592,901,0.13230543318649046
223,US,Texas,"Hansford County, Texas",2021-05-06T16:31:00Z,36.27750219,-101.3545118,897,25,0,48,195,"Hansford County, Texas",32,7,76,396,3373,0.26593536910761933,0.007411799584939223,2862,0.8485028164838423,511,0.15149718351615774,115,0.03409427809072043
224,US,Texas,"Yoakum County, Texas",2021-05-06T16:31:00Z,33.17292695,-102.8276058,872,27,0,48,501,"Yoakum County, Texas",0,18,118,483,4873,0.17894520829058075,0.005540734660373486,4254,0.8729735276010671,619,0.1270264723989329,136,0.02790888569669608
225,US,Texas,"Morris County, Texas",2021-05-06T16:31:00Z,33.11342037,-94.73233824,866,33,0,48,343,"Morris County, Texas",0,3,376,854,8600,0.10069767441860465,0.0038372093023255815,7367,0.8566279069767442,1233,0.14337209302325582,379,0.04406976744186047
226,US,Texas,"Floyd County, Texas",2021-05-06T16:31:00Z,34.07238001,-101.30321409999999,847,30,0,48,153,"Floyd County, Texas",4,19,117,460,3770,0.2246684350132626,0.007957559681697613,3170,0.8408488063660478,600,0.15915119363395225,140,0.03713527851458886
227,US,Texas,"Swisher County, Texas",2021-05-06T16:31:00Z,34.53062422,-101.7348686,829,17,0,48,437,"Swisher County, Texas",5,19,209,533,5012,0.16540303272146847,0.003391859537110934,4246,0.8471667996807661,766,0.15283320031923384,233,0.04648842777334397
228,US,Texas,"Bailey County, Texas",2021-05-06T16:31:00Z,34.06851743,-102.8298743,821,19,0,48,17,"Bailey County, Texas",130,0,42,563,4269,0.1923167018037011,0.004450691028343875,3534,0.8278285312719607,735,0.17217146872803935,172,0.04029046615132349
229,US,Texas,"Presidio County, Texas",2021-05-06T16:31:00Z,29.99995073,-104.2405496,817,24,0,48,377,"Presidio County, Texas",0,13,280,641,4411,0.18521877125368397,0.005440943096803446,3477,0.7882566311493993,934,0.21174336885060077,293,0.06642484697347541
230,US,Texas,"San Saba County, Texas",2021-05-06T16:31:00Z,31.195829999999997,-98.71651,803,23,0,48,411,"San Saba County, Texas",31,18,81,464,4207,0.19087235559781318,0.005467078678393154,3613,0.8588067506536724,594,0.14119324934632754,130,0.030900879486570002
231,US,Texas,"Archer County, Texas",2021-05-06T16:31:00Z,33.61535438,-98.68771374,802,12,0,48,9,"Archer County, Texas",47,100,325,995,6137,0.1306827440117321,0.001955352778230406,4670,0.7609581228613329,1467,0.2390418771386671,472,0.07691054261039595
232,US,Texas,"Brooks County, Texas",2021-05-06T16:31:00Z,27.03152599,-98.21865819,801,36,0,48,47,"Brooks County, Texas",0,0,194,441,4047,0.19792438843587842,0.008895478131949592,3412,0.8430936496170003,635,0.15690635038299974,194,0.047936743266617246
233,US,Texas,"Rains County, Texas",2021-05-06T16:31:00Z,32.86905982,-95.78601616,798,25,0,48,379,"Rains County, Texas",12,42,294,851,8734,0.09136707121593772,0.002862376917792535,7535,0.8627204030226701,1199,0.13727959697732997,348,0.03984428669567209
234,US,Texas,"Stephens County, Texas",2021-05-06T16:31:00Z,32.735819199999995,-98.83606970000001,788,25,0,48,429,"Stephens County, Texas",60,45,223,693,6289,0.12529813960884084,0.003975194784544443,5268,0.837653044999205,1021,0.16234695500079505,328,0.052154555573223085
235,US,Texas,"Hamilton County, Texas",2021-05-06T16:31:00Z,31.70475909,-98.1106215,772,27,0,48,193,"Hamilton County, Texas",37,57,330,905,5923,0.13033935505655916,0.004558500759750127,4594,0.7756204626034104,1329,0.22437953739658956,424,0.0715853452642242
236,US,Texas,"Winkler County, Texas",2021-05-06T16:31:00Z,31.8500015,-103.04827879999999,767,21,0,48,495,"Winkler County, Texas",9,24,81,266,4612,0.1663052905464007,0.004553339115351257,4232,0.9176062445793582,380,0.0823937554206418,114,0.024718126626192542
237,US,Texas,"Trinity County, Texas",2021-05-06T16:31:00Z,31.09369828,-95.13167773,751,26,0,48,455,"Trinity County, Texas",13,33,322,996,10591,0.07090926258143707,0.002454914550089699,9227,0.8712114059106789,1364,0.1287885940893211,368,0.03474648286280804
238,US,Texas,"Coleman County, Texas",2021-05-06T16:31:00Z,31.77316426,-99.45352719,749,32,0,48,83,"Coleman County, Texas",31,75,176,688,6147,0.121848055962258,0.005205791442980316,5177,0.8421994468846592,970,0.15780055311534083,282,0.04587603709126403
239,US,Texas,"Blanco County, Texas",2021-05-06T16:31:00Z,30.26638227,-98.39975934,733,20,0,48,31,"Blanco County, Texas",104,182,496,1508,8650,0.08473988439306358,0.0023121387283236996,6360,0.7352601156069364,2290,0.26473988439306356,782,0.09040462427745664
240,US,Texas,"Franklin County, Texas",2021-05-06T16:31:00Z,33.17548642,-95.21838669,723,26,0,48,159,"Franklin County, Texas",26,20,493,1399,7289,0.09919056111949513,0.0035670187954451914,5351,0.7341199067087392,1938,0.2658800932912608,539,0.0739470434901907
241,US,Texas,"Red River County, Texas",2021-05-06T16:31:00Z,33.62052003,-95.05017125,692,37,0,48,387,"Red River County, Texas",11,9,238,854,8921,0.07756977917273848,0.004147517094496133,7809,0.8753502970519,1112,0.12464970294809999,258,0.028920524604864925
242,US,Texas,"Refugio County, Texas",2021-05-06T16:31:00Z,28.32673794,-97.16537557,662,21,0,48,391,"Refugio County, Texas",18,19,126,392,4817,0.13742993564459208,0.0043595598920489935,4262,0.884783059995848,555,0.11521694000415196,163,0.03383848868590409
243,US,Texas,"Mills County, Texas",2021-05-06T16:31:00Z,31.49520882,-98.59546815,656,21,0,48,333,"Mills County, Texas",45,7,106,495,3575,0.1834965034965035,0.005874125874125874,2922,0.8173426573426573,653,0.18265734265734265,158,0.0441958041958042
244,US,Texas,"Crosby County, Texas",2021-05-06T16:31:00Z,33.61457547,-101.29984379999999,654,29,0,48,107,"Crosby County, Texas",5,22,95,371,3747,0.1745396317053643,0.00773952495329597,3254,0.8684280757939685,493,0.1315719242060315,122,0.032559380838003735
245,US,Texas,"Hartley County, Texas",2021-05-06T16:31:00Z,35.83996333,-102.60279150000001,632,2,0,48,205,"Hartley County, Texas",53,39,148,522,4273,0.14790545284343554,0.000468055230517201,3511,0.8216709571729464,762,0.17832904282705359,240,0.05616662766206412
246,US,Texas,"Martin County, Texas",2021-05-06T16:31:00Z,32.30606767,-101.9511384,632,18,0,48,317,"Martin County, Texas",8,24,248,328,3321,0.19030412526347484,0.005420054200542005,2713,0.8169226136705812,608,0.18307738632941886,280,0.08431195423065342
247,US,Texas,"Newton County, Texas",2021-05-06T16:31:00Z,30.78529345,-93.74501456,620,35,0,48,351,"Newton County, Texas",4,17,181,754,9820,0.06313645621181263,0.003564154786150713,8864,0.9026476578411405,956,0.09735234215885948,202,0.020570264765784115
248,US,Texas,"Lynn County, Texas",2021-05-06T16:31:00Z,33.17683641,-101.8159973,618,23,0,48,305,"Lynn County, Texas",18,33,100,506,3807,0.16233254531126873,0.006041502495403204,3150,0.8274231678486997,657,0.17257683215130024,151,0.039663777252429734
249,US,Texas,"Jim Hogg County, Texas",2021-05-06T16:31:00Z,27.04338085,-98.69722643,613,16,0,48,247,"Jim Hogg County, Texas",0,2,84,322,3037,0.20184392492591374,0.005268356931182087,2629,0.8656568982548568,408,0.13434310174514325,86,0.02831741850510372
250,US,Texas,"Jack County, Texas",2021-05-06T16:31:00Z,33.23344728,-98.17249922,609,16,0,48,237,"Jack County, Texas",53,45,185,534,6066,0.10039564787339268,0.002637652489284537,5249,0.8653148697659083,817,0.13468513023409165,283,0.046653478404220246
251,US,Texas,"Mitchell County, Texas",2021-05-06T16:31:00Z,32.30618963,-100.92119100000001,604,30,0,48,335,"Mitchell County, Texas",18,4,136,473,5574,0.10836024398995335,0.005382131324004306,4943,0.8867958378184427,631,0.11320416218155722,158,0.02834589163975601
252,US,Texas,"Hemphill County, Texas",2021-05-06T16:31:00Z,35.83747747,-100.2704145,586,2,0,48,211,"Hemphill County, Texas",2,12,105,396,2428,0.2413509060955519,0.0008237232289950577,1913,0.7878912685337727,515,0.21210873146622736,119,0.04901153212520593
253,US,Texas,"Crockett County, Texas",2021-05-06T16:31:00Z,30.72302381100008,-101.41202116899996,575,15,0,48,105,"Crockett County, Texas",16,0,74,242,2370,0.24261603375527427,0.006329113924050633,2038,0.859915611814346,332,0.140084388185654,90,0.0379746835443038
254,US,Texas,"McCulloch County, Texas",2021-05-06T16:31:00Z,31.19874391,-99.34740948,575,19,0,48,307,"McCulloch County, Texas",19,2,274,682,5651,0.10175190231817377,0.0033622367722526986,4674,0.8271102459741638,977,0.17288975402583615,295,0.05220314988497611
255,US,Texas,"San Augustine County, Texas",2021-05-06T16:31:00Z,31.52897,-94.10651,573,32,0,48,405,"San Augustine County, Texas",20,24,276,533,6096,0.09399606299212598,0.005249343832020997,5243,0.8600721784776902,853,0.1399278215223097,320,0.05249343832020997
256,US,Texas,"Marion County, Texas",2021-05-06T16:31:00Z,33.93325,-87.65897,539,33,0,48,315,"Marion County, Texas",23,16,231,845,7579,0.07111756168359942,0.0043541364296081275,6464,0.8528829660905133,1115,0.14711703390948674,270,0.03562475260588468
257,US,Texas,"Wheeler County, Texas",2021-05-06T16:31:00Z,35.4012604,-100.2696723,531,10,0,48,483,"Wheeler County, Texas",14,6,123,467,3624,0.14652317880794702,0.0027593818984547464,3014,0.8316777041942605,610,0.1683222958057395,143,0.03945916114790287
258,US,Texas,"Crane County, Texas",2021-05-06T16:31:00Z,31.42846649,-102.5155684,530,12,0,48,103,"Crane County, Texas",0,24,85,318,2902,0.18263266712611992,0.004135079255685734,2475,0.8528600964851827,427,0.14713990351481737,109,0.037560303239145415
259,US,Texas,"Hudspeth County, Texas",2021-05-06T16:31:00Z,31.45623189,-105.38654340000001,530,11,0,48,229,"Hudspeth County, Texas",0,0,20,294,2936,0.18051771117166213,0.003746594005449591,2622,0.8930517711171662,314,0.10694822888283378,20,0.006811989100817439
260,US,Texas,"Carson County, Texas",2021-05-06T16:31:00Z,35.40342981,-101.35413759999999,521,14,0,48,65,"Carson County, Texas",20,14,319,818,4118,0.12651772705196698,0.003399708596406022,2947,0.7156386595434677,1171,0.2843613404565323,353,0.0857212238950947
261,US,Texas,"Sabine County, Texas",2021-05-06T16:31:00Z,31.34647718,-93.87096354,519,45,0,48,403,"Sabine County, Texas",4,57,602,731,7928,0.06546417759838546,0.005676084762865792,6534,0.824167507568113,1394,0.17583249243188698,663,0.083627648839556
262,US,Texas,"Garza County, Texas",2021-05-06T16:31:00Z,33.17988347,-101.2984365,488,22,0,48,169,"Garza County, Texas",8,4,161,453,4509,0.10822798846750943,0.004879130627633622,3883,0.8611665557773343,626,0.13883344422266578,173,0.03836770902639166
263,US,Texas,"Sutton County, Texas",2021-05-06T16:31:00Z,30.498269692000065,-100.53800718499996,479,8,0,48,435,"Sutton County, Texas",0,16,140,282,2560,0.187109375,0.003125,2122,0.82890625,438,0.17109375,156,0.0609375
264,US,Texas,"Coke County, Texas",2021-05-06T16:31:00Z,31.88847775,-100.52981120000001,464,12,0,48,81,"Coke County, Texas",30,24,133,259,2502,0.18545163868904876,0.004796163069544364,2056,0.8217426059152678,446,0.1782573940847322,187,0.07474020783373302
265,US,Texas,"Hall County, Texas",2021-05-06T16:31:00Z,34.53072231,-100.68091740000001,462,14,0,48,191,"Hall County, Texas",5,0,97,229,2080,0.2221153846153846,0.006730769230769231,1749,0.8408653846153846,331,0.15913461538461537,102,0.04903846153846154
266,US,Texas,"Goliad County, Texas",2021-05-06T16:31:00Z,28.65705844,-97.42642325,448,13,0,48,175,"Goliad County, Texas",15,15,221,667,5315,0.08428974600188147,0.0024459078080903106,4397,0.8272812793979304,918,0.1727187206020696,251,0.04722483537158984
267,US,Texas,"Haskell County, Texas",2021-05-06T16:31:00Z,33.17820047,-99.73024139,445,27,0,48,207,"Haskell County, Texas",9,2,96,369,4008,0.11102794411177645,0.006736526946107785,3532,0.8812375249500998,476,0.1187624750499002,107,0.026696606786427147
268,US,Texas,"Donley County, Texas",2021-05-06T16:31:00Z,34.96538118,-100.81397609999999,406,15,0,48,129,"Donley County, Texas",3,10,107,272,2194,0.18505013673655424,0.0068368277119416595,1802,0.821330902461258,392,0.17866909753874202,120,0.054694621695533276
269,US,Texas,"Mason County, Texas",2021-05-06T16:31:00Z,30.71772871,-99.22604108,396,6,0,48,319,"Mason County, Texas",22,23,173,573,2863,0.13831645127488648,0.00209570380719525,2072,0.7237163814180929,791,0.2762836185819071,218,0.07614390499476074
270,US,Texas,"Upton County, Texas",2021-05-06T16:31:00Z,31.36882524300006,-102.04293438199993,381,10,0,48,461,"Upton County, Texas",0,7,76,151,2430,0.15679012345679014,0.00411522633744856,2196,0.9037037037037037,234,0.0962962962962963,83,0.034156378600823045
271,US,Texas,"Hardeman County, Texas",2021-05-06T16:31:00Z,34.28960078,-99.74602411,380,12,0,48,197,"Hardeman County, Texas",10,36,59,273,2765,0.13743218806509946,0.00433996383363472,2387,0.8632911392405064,378,0.13670886075949368,105,0.0379746835443038
272,US,Texas,"Reagan County, Texas",2021-05-06T16:31:00Z,31.36615696,-101.5229176,380,8,0,48,383,"Reagan County, Texas",0,12,55,161,2175,0.17471264367816092,0.0036781609195402297,1947,0.8951724137931034,228,0.10482758620689656,67,0.030804597701149426
273,US,Texas,"Concho County, Texas",2021-05-06T16:31:00Z,31.32658443,-99.86393675,378,8,0,48,95,"Concho County, Texas",7,0,80,255,2626,0.14394516374714394,0.0030464584920030465,2284,0.8697638994668697,342,0.13023610053313023,87,0.03313023610053313
274,US,Texas,"Culberson County, Texas",2021-05-06T16:31:00Z,31.447215805000038,-104.51739982299995,362,11,0,48,109,"Culberson County, Texas",9,5,12,120,1425,0.2540350877192982,0.0077192982456140355,1279,0.8975438596491228,146,0.10245614035087719,26,0.018245614035087718
275,US,Texas,"Kinney County, Texas",2021-05-06T16:31:00Z,29.35025058900004,-100.41783772499996,351,6,0,48,271,"Kinney County, Texas",0,32,132,195,2957,0.11870138654041258,0.002029083530605343,2598,0.8785931687521136,359,0.12140683124788637,164,0.05546161650321271
276,US,Texas,"Lipscomb County, Texas",2021-05-06T16:31:00Z,36.27780424,-100.27316579999999,335,12,0,48,295,"Lipscomb County, Texas",20,33,75,312,2235,0.14988814317673377,0.005369127516778523,1795,0.8031319910514542,440,0.19686800894854586,128,0.05727069351230425
277,US,Texas,"Collingsworth County, Texas",2021-05-06T16:31:00Z,34.96495258,-100.2700158,323,9,0,48,87,"Collingsworth County, Texas",6,4,54,334,1966,0.16429298067141404,0.004577822990844354,1568,0.797558494404883,398,0.20244150559511698,64,0.03255340793489318
278,US,Texas,"Delta County, Texas",2021-05-06T16:31:00Z,33.38578601,-95.67248556,319,12,0,48,119,"Delta County, Texas",41,8,296,560,3603,0.08853733000277547,0.0033305578684429643,2698,0.7488204274215932,905,0.2511795725784069,345,0.09575353871773522
279,US,Texas,"Real County, Texas",2021-05-06T16:31:00Z,29.83179732400004,-99.82210436299994,311,12,0,48,385,"Real County, Texas",7,0,103,282,2257,0.13779353123615418,0.005316792202038104,1865,0.8263181214000886,392,0.17368187859991138,110,0.04873726185201595
280,US,Texas,"Cochran County, Texas",2021-05-06T16:31:00Z,33.6040986,-102.8283512,306,15,0,48,79,"Cochran County, Texas",0,15,28,108,1881,0.16267942583732056,0.007974481658692184,1730,0.9197235513024987,151,0.08027644869750133,43,0.022860180754917598
281,US,Texas,"Fisher County, Texas",2021-05-06T16:31:00Z,32.7429269,-100.40203129999999,299,14,0,48,151,"Fisher County, Texas",9,12,114,364,2677,0.11169219275308181,0.005229734777736272,2178,0.8135973104221144,499,0.1864026895778857,135,0.05042958535674262
282,US,Texas,"Baylor County, Texas",2021-05-06T16:31:00Z,33.616458102000024,-99.21347682399994,298,12,0,48,23,"Baylor County, Texas",11,14,111,443,2534,0.11760063141278611,0.004735595895816891,1955,0.771507498026835,579,0.22849250197316495,136,0.05367008681925809
283,US,Texas,"Knox County, Texas",2021-05-06T16:31:00Z,33.60612084,-99.74138048,287,17,0,48,275,"Knox County, Texas",19,6,156,301,2398,0.11968306922435362,0.007089241034195163,1916,0.798999165971643,482,0.20100083402835697,181,0.07547956630525438
284,US,Texas,"Shackelford County, Texas",2021-05-06T16:31:00Z,32.73595663,-99.35393367,272,5,0,48,417,"Shackelford County, Texas",17,5,160,501,2239,0.12148280482358195,0.0022331397945511387,1556,0.6949531040643144,683,0.30504689593568557,182,0.08128628852166146
285,US,Texas,"Oldham County, Texas",2021-05-06T16:31:00Z,35.40495423,-102.60288990000001,269,4,0,48,359,"Oldham County, Texas",14,3,71,190,1263,0.21298495645288995,0.003167062549485352,985,0.779889152810768,278,0.220110847189232,88,0.06967537608867776
286,US,Texas,"Kimble County, Texas",2021-05-06T16:31:00Z,30.48678504,-99.74853422,268,6,0,48,267,"Kimble County, Texas",35,63,219,405,3214,0.08338518979464841,0.001866832607342875,2492,0.7753578095830741,722,0.22464219041692596,317,0.09863098942128189
287,US,Texas,"Edwards County, Texas",2021-05-06T16:31:00Z,29.98263072700007,-100.30469119699995,248,6,0,48,137,"Edwards County, Texas",0,0,45,221,1465,0.16928327645051194,0.004095563139931741,1199,0.8184300341296928,266,0.18156996587030716,45,0.030716723549488054
288,US,Texas,"Schleicher County, Texas",2021-05-06T16:31:00Z,30.897439184000074,-100.53849378099994,239,6,0,48,413,"Schleicher County, Texas",0,10,45,271,1968,0.12144308943089431,0.003048780487804878,1642,0.834349593495935,326,0.16565040650406504,55,0.027947154471544715
289,US,Texas,"Sherman County, Texas",2021-05-06T16:31:00Z,36.27764403,-101.8933597,223,12,0,48,421,"Sherman County, Texas",0,0,60,252,2076,0.10741811175337188,0.005780346820809248,1764,0.8497109826589595,312,0.15028901734104047,60,0.028901734104046242
290,US,Texas,"Menard County, Texas",2021-05-06T16:31:00Z,30.88991402100004,-99.82062830099994,208,9,0,48,327,"Menard County, Texas",38,18,56,206,1763,0.11798071469086784,0.005104934770277935,1445,0.8196256381168463,318,0.18037436188315373,112,0.06352807714123652
291,US,Texas,"Cottle County, Texas",2021-05-06T16:31:00Z,34.07764233,-100.2786452,190,7,0,48,101,"Cottle County, Texas",2,4,53,120,1067,0.1780693533270853,0.006560449859418931,888,0.8322399250234301,179,0.16776007497656983,59,0.05529522024367385
292,US,Texas,"Jeff Davis County, Texas",2021-05-06T16:31:00Z,30.715548940000076,-104.13991279299995,190,5,0,48,243,"Jeff Davis County, Texas",3,2,329,184,1698,0.11189634864546526,0.002944640753828033,1180,0.6949352179034158,518,0.3050647820965842,334,0.1967020023557126
293,US,Texas,"Dickens County, Texas",2021-05-06T16:31:00Z,33.6165717,-100.77882240000001,186,10,0,48,125,"Dickens County, Texas",23,25,64,191,1639,0.11348383160463697,0.006101281269066504,1336,0.8151311775472849,303,0.18486882245271508,112,0.06833435021354485
294,US,Texas,"Armstrong County, Texas",2021-05-06T16:31:00Z,34.96511906,-101.3572807,183,6,0,48,11,"Armstrong County, Texas",2,3,88,226,1400,0.13071428571428573,0.004285714285714286,1081,0.7721428571428571,319,0.22785714285714287,93,0.06642857142857143
295,US,Texas,"Briscoe County, Texas",2021-05-06T16:31:00Z,34.53036035,-101.2084771,169,5,0,48,45,"Briscoe County, Texas",6,18,36,147,1048,0.16125954198473283,0.004770992366412214,841,0.8024809160305344,207,0.19751908396946566,60,0.05725190839694656
296,US,Texas,"Stonewall County, Texas",2021-05-06T16:31:00Z,33.179029456000016,-100.25338385399999,156,6,0,48,433,"Stonewall County, Texas",6,0,44,96,988,0.15789473684210525,0.006072874493927126,842,0.8522267206477733,146,0.14777327935222673,50,0.05060728744939271
297,US,Texas,"Irion County, Texas",2021-05-06T16:31:00Z,31.30392184000005,-100.98235179999996,126,1,0,48,235,"Irion County, Texas",3,10,21,122,1039,0.12127045235803657,0.0009624639076034649,883,0.8498556304138595,156,0.15014436958614052,34,0.032723772858517804
298,US,Texas,"Foard County, Texas",2021-05-06T16:31:00Z,33.97453685500005,-99.77790831999994,122,10,0,48,155,"Foard County, Texas",0,0,41,111,937,0.13020277481323372,0.010672358591248666,785,0.8377801494130203,152,0.1622198505869797,41,0.04375667022411953
299,US,Texas,"Motley County, Texas",2021-05-06T16:31:00Z,34.07406375,-100.7798371,115,8,0,48,345,"Motley County, Texas",0,0,16,132,880,0.13068181818181818,0.00909090909090909,732,0.8318181818181818,148,0.16818181818181818,16,0.01818181818181818
300,US,Texas,"Sterling County, Texas",2021-05-06T16:31:00Z,31.82784942800004,-101.04999100399999,108,4,0,48,431,"Sterling County, Texas",0,7,26,41,775,0.1393548387096774,0.005161290322580645,701,0.9045161290322581,74,0.09548387096774194,33,0.04258064516129032
301,US,Texas,"Kent County, Texas",2021-05-06T16:31:00Z,33.181445319000034,-100.77769293499996,106,2,0,48,263,"Kent County, Texas",0,4,62,54,472,0.2245762711864407,0.00423728813559322,352,0.7457627118644068,120,0.2542372881355932,66,0.13983050847457626
302,US,Texas,"Glasscock County, Texas",2021-05-06T16:31:00Z,31.8694032,-101.5206598,105,2,0,48,173,"Glasscock County, Texas",4,10,61,166,887,0.11837655016910936,0.002254791431792559,646,0.7282976324689966,241,0.2717023675310034,75,0.08455467869222097
303,US,Texas,"McMullen County, Texas",2021-05-06T16:31:00Z,28.349607306000053,-98.57144386,83,5,0,48,311,"McMullen County, Texas",0,11,55,77,496,0.16733870967741934,0.010080645161290322,353,0.7116935483870968,143,0.28830645161290325,66,0.13306451612903225
304,US,Texas,"Terrell County, Texas",2021-05-06T16:31:00Z,30.225285291000038,-102.07634355099998,79,2,0,48,443,"Terrell County, Texas",7,0,49,83,754,0.10477453580901856,0.002652519893899204,615,0.8156498673740054,139,0.1843501326259947,56,0.07427055702917772
305,US,Texas,"Throckmorton County, Texas",2021-05-06T16:31:00Z,33.17751150900005,-99.21231400799995,73,5,0,48,447,"Throckmorton County, Texas",0,5,53,179,1090,0.06697247706422019,0.0045871559633027525,853,0.7825688073394496,237,0.21743119266055047,58,0.05321100917431193
306,US,Texas,"Roberts County, Texas",2021-05-06T16:31:00Z,35.83862346,-100.8135041,61,1,0,48,393,"Roberts County, Texas",11,0,39,90,560,0.10892857142857143,0.0017857142857142857,420,0.75,140,0.25,50,0.08928571428571429
307,US,Texas,"Kenedy County, Texas",2021-05-06T16:31:00Z,26.92760049400005,-97.71818949999994,38,2,0,48,261,"Kenedy County, Texas",0,0,3,1,382,0.09947643979057591,0.005235602094240838,378,0.9895287958115183,4,0.010471204188481676,3,0.007853403141361256
308,US,Texas,"Borden County, Texas",2021-05-06T16:31:00Z,32.743702290000044,-101.43168114099994,31,2,0,48,33,"Borden County, Texas",0,0,52,113,418,0.07416267942583732,0.004784688995215311,253,0.6052631578947368,165,0.39473684210526316,52,0.12440191387559808
309,US,Texas,"King County, Texas",2021-05-06T16:31:00Z,33.61644749800007,-100.25582149499996,12,0,0,48,269,"King County, Texas",4,0,3,26,158,0.0759493670886076,0.0,125,0.7911392405063291,33,0.2088607594936709,7,0.04430379746835443
310,US,Texas,"Loving County, Texas",2021-05-06T16:31:00Z,31.84918183600007,-103.58011367700001,2,0,0,48,301,"Loving County, Texas",0,0,0,0,71,0.028169014084507043,0.0,71,1.0,0,0.0,0,0.0
311,US,Florida,"Miami-Dade County, Florida",2021-05-06T16:31:00Z,25.61418208,-80.5679083,488303,6218,0,12,86,"Miami-Dade County, Florida",21574,54812,132902,360837,1914094,0.25510920571299006,0.0032485342935090963,1343969,0.7021436773742564,570125,0.2978563226257436,209288,0.10934050260854483
312,US,Florida,"Broward County, Florida",2021-05-06T16:31:00Z,26.15224542,-80.48705340000002,238834,2943,0,12,11,"Broward County, Florida",15454,37370,113532,275133,1362196,0.17533012870394568,0.002160482045168243,920707,0.6758990629835941,441489,0.32410093701640585,166356,0.12212339487122265
313,US,Florida,"Palm Beach County, Florida",2021-05-06T16:31:00Z,26.70288,-80.03661,144615,2781,0,12,99,"Palm Beach County, Florida",16317,36078,98376,242569,1071994,0.13490280729183185,0.002594230937859727,678654,0.6330763045315552,393340,0.3669236954684448,150771,0.14064537674651165
314,US,Florida,"Orange County, Florida",2021-05-06T16:31:00Z,30.244010999999997,-85.007347,138098,1268,0,12,95,"Orange County, Florida",9734,21514,75172,206396,904375,0.15269993089149966,0.0014020732550103663,591559,0.6541080856945404,312816,0.34589191430545957,106420,0.11767242570836213
315,US,Florida,"Hillsborough County, Florida",2021-05-06T16:31:00Z,27.93023096,-82.30785534,137314,1732,0,12,57,"Hillsborough County, Florida",12824,22557,82952,208098,973813,0.14100653821626946,0.0017785755581410394,647382,0.6647908787416065,326431,0.3352091212583935,118333,0.1215151163519074
316,US,Florida,"Duval County, Florida",2021-05-06T16:31:00Z,30.47844000000001,-81.62557,98143,1402,0,12,31,"Duval County, Florida",5861,11839,46922,127553,639634,0.1534361838176207,0.0021918784805060394,447459,0.6995547453700085,192175,0.30044525462999155,64622,0.1010296513318554
317,US,Florida,"Pinellas County, Florida",2021-05-06T16:31:00Z,27.9313392,-82.72194025,79544,1623,0,12,103,"Pinellas County, Florida",8703,16296,57398,152691,741396,0.10728949171562835,0.0021891135101888867,506308,0.6829116963134412,235088,0.3170883036865589,82397,0.11113763764573859
318,US,Florida,"Lee County, Florida",2021-05-06T16:31:00Z,26.57965162,-81.82468531,70519,973,0,12,71,"Lee County, Florida",6643,12444,40004,97615,554846,0.1270965276851595,0.0017536397486870232,398140,0.7175684784606899,156706,0.28243152153931,59091,0.10649982157211191
319,US,Florida,"Polk County, Florida",2021-05-06T16:31:00Z,27.94887824,-81.69776009,68632,1324,0,12,105,"Polk County, Florida",3352,5265,24549,62685,475256,0.14441059134445436,0.0027858669853720944,379405,0.7983171175114043,95851,0.20168288248859562,33166,0.06978554715774235
320,US,Florida,"Osceola County, Florida",2021-05-06T16:31:00Z,28.06812578,-81.14519655,44687,509,0,12,97,"Osceola County, Florida",1490,3044,11177,34895,232156,0.19248694843122727,0.0021924912558796673,181550,0.7820172642533468,50606,0.2179827357466531,15711,0.06767432243836041
321,US,Florida,"Volusia County, Florida",2021-05-06T16:31:00Z,29.169340000000002,-81.52251,43222,803,0,12,127,"Volusia County, Florida",3638,5232,23291,61963,397329,0.10878138771647677,0.0020209951954173995,303205,0.7631081547030295,94124,0.23689184529697052,32161,0.08094299686154295
322,US,Florida,"Brevard County, Florida",2021-05-06T16:31:00Z,28.29348419,-80.73235631,41443,866,0,12,9,"Brevard County, Florida",5249,5469,39297,81151,434825,0.09530960731328696,0.0019916058184327027,303659,0.698347611107917,131166,0.301652388892083,50015,0.1150232852296901
323,US,Florida,"Pasco County, Florida",2021-05-06T16:31:00Z,28.32453,-82.33624,41342,753,0,12,101,"Pasco County, Florida",3325,4454,23333,60448,380729,0.10858642236341334,0.0019777847235172524,289169,0.759513985012962,91560,0.24048601498703803,31112,0.08171691675706343
324,US,Florida,"Manatee County, Florida",2021-05-06T16:31:00Z,27.49643,-82.53954,38640,671,0,12,81,"Manatee County, Florida",3953,5701,23626,52203,287043,0.1346139776967214,0.002337628857000519,201560,0.702194444734761,85483,0.297805555265239,33280,0.11594081722947433
325,US,Florida,"Escambia County, Florida",2021-05-06T16:31:00Z,30.70048478,-87.37722154,36110,690,0,12,33,"Escambia County, Florida",2210,3169,14683,35938,211050,0.1710968964700308,0.0032693674484719263,155050,0.7346600331674958,56000,0.26533996683250416,20062,0.09505804311774461
326,US,Florida,"Collier County, Florida",2021-05-06T16:31:00Z,26.11625563,-81.34013334,35789,531,0,12,21,"Collier County, Florida",4518,9766,27810,60615,282120,0.12685736566000283,0.0018821777966822628,179411,0.6359386076846731,102709,0.3640613923153268,42094,0.14920601162625832
327,US,Florida,"Seminole County, Florida",2021-05-06T16:31:00Z,28.71700144,-81.23632262,34094,497,0,12,117,"Seminole County, Florida",4479,6760,31724,85699,324951,0.10492043415776532,0.0015294613649442532,196289,0.6040572270896227,128662,0.39594277291037727,42963,0.13221377992374234
328,US,Florida,"Sarasota County, Florida",2021-05-06T16:31:00Z,27.33889000000001,-82.53886999999997,32748,820,0,12,115,"Sarasota County, Florida",6104,9544,33531,69478,335030,0.09774647046533147,0.0024475420111631794,216373,0.6458317165626959,118657,0.3541682834373041,49179,0.14678983971584633
329,US,Florida,"Leon County, Florida",2021-05-06T16:31:00Z,30.45796803,-84.27794359,31938,320,0,12,73,"Leon County, Florida",6741,6410,21801,44660,172223,0.18544561411658142,0.001858056124907823,92611,0.537738861824495,79612,0.462261138175505,34952,0.20294618024305697
330,US,Florida,"Marion County, Florida",2021-05-06T16:31:00Z,29.21018701,-82.05662511,31111,964,0,12,83,"Marion County, Florida",1534,3521,13553,34395,263547,0.11804725532827162,0.003657791589355978,210544,0.7988859672088849,53003,0.20111403279111506,18608,0.07060600196549383
331,US,Florida,"Lake County, Florida",2021-05-06T16:31:00Z,28.76261973,-81.71155351,29661,637,0,12,69,"Lake County, Florida",1927,3685,16482,39314,255871,0.11592169491657905,0.002489535742620305,194463,0.7600040645481512,61408,0.23999593545184877,22094,0.08634819889710049
332,US,Florida,"St. Lucie County, Florida",2021-05-06T16:31:00Z,27.48948,-80.33977,26389,632,0,12,111,"St. Lucie County, Florida",1637,2875,12922,31698,227271,0.11611248245486666,0.00278082113424062,178139,0.7838175570134333,49132,0.2161824429865667,17434,0.07671018299739078
333,US,Florida,"Alachua County, Florida",2021-05-06T16:31:00Z,29.79309000000001,-82.49428,24795,275,0,12,1,"Alachua County, Florida",8044,6571,19561,35916,161824,0.15322201898358712,0.0016993771010480523,91732,0.5668627644848725,70092,0.43313723551512756,34176,0.2111924065651572
334,US,Florida,"St. Johns County, Florida",2021-05-06T16:31:00Z,30.120509999999996,-81.62536,22622,210,0,12,109,"St. Johns County, Florida",3283,5062,20452,48721,173403,0.13045910393707144,0.0012110517119080985,95885,0.5529604447443239,77518,0.44703955525567607,28797,0.1660697911800834
335,US,Florida,"Okaloosa County, Florida",2021-05-06T16:31:00Z,30.70702353,-86.59650821,20549,362,0,12,91,"Okaloosa County, Florida",1344,2163,12606,27467,140078,0.14669684033181513,0.002584274475649281,96498,0.6888876197547081,43580,0.3111123802452919,16113,0.11502876968546095
336,US,Florida,"Bay County, Florida",2021-05-06T16:31:00Z,30.27874147,-85.61547985,20176,387,0,12,5,"Bay County, Florida",1052,1939,7995,19477,128438,0.15708746632616516,0.003013126956196764,97975,0.7628194148149302,30463,0.23718058518506985,10986,0.08553543343870194
337,US,Florida,"Clay County, Florida",2021-05-06T16:31:00Z,29.98305516,-81.85778209,18595,340,0,12,19,"Clay County, Florida",1014,1695,8807,24546,144566,0.12862637134595964,0.0023518669673367183,108504,0.7505499218350096,36062,0.24945007816499037,11516,0.0796591176348519
338,US,Florida,"Santa Rosa County, Florida",2021-05-06T16:31:00Z,30.73147611,-87.01761385,18206,287,0,12,113,"Santa Rosa County, Florida",1014,1630,9210,22038,122166,0.1490267341158751,0.0023492624789221224,88274,0.722574202314883,33892,0.277425797685117,11854,0.09703190740467887
339,US,Florida,"Hernando County, Florida",2021-05-06T16:31:00Z,28.55250381,-82.41938996,13966,464,0,12,53,"Hernando County, Florida",949,1218,6515,17034,139440,0.10015777395295468,0.003327596098680436,113724,0.8155765920826161,25716,0.18442340791738382,8682,0.06226333907056798
340,US,Florida,"Charlotte County, Florida",2021-05-06T16:31:00Z,26.90848328,-81.90343918,12875,418,0,12,15,"Charlotte County, Florida",1201,2159,9675,21996,149434,0.08615843783877833,0.0027972215158531526,114403,0.7655754379860005,35031,0.2344245620139995,13035,0.08722914463910489
341,US,Florida,"Indian River County, Florida",2021-05-06T16:31:00Z,27.694396500000003,-80.60612987,12502,299,0,12,61,"Indian River County, Florida",1378,2716,9332,21086,118504,0.10549854857220009,0.0025231215823938434,83992,0.7087693242422197,34512,0.29123067575778033,13426,0.1132957537298319
342,US,Florida,"Martin County, Florida",2021-05-06T16:31:00Z,27.08809728,-80.38317334,12312,320,0,12,85,"Martin County, Florida",1412,2983,10731,26669,122630,0.10039957596020549,0.0026094756584848734,80835,0.6591780151675772,41795,0.3408219848324227,15126,0.12334665253200686
343,US,Florida,"Citrus County, Florida",2021-05-06T16:31:00Z,28.850778899999998,-82.46594866,11093,446,0,12,17,"Citrus County, Florida",746,1416,5826,13153,115528,0.09602001246451076,0.003860535973963022,94387,0.8170054012879995,21141,0.18299459871200055,7988,0.0691434111211135
344,US,Florida,"Sumter County, Florida",2021-05-06T16:31:00Z,28.70474449,-82.0809939,9331,275,0,12,119,"Sumter County, Florida",1298,1852,11859,20675,112211,0.0831558403365089,0.002450740123517302,76527,0.6819919615723948,35684,0.3180080384276051,15009,0.1337569400504407
345,US,Florida,"Highlands County, Florida",2021-05-06T16:31:00Z,27.34332999,-81.34112609,8531,352,0,12,55,"Highlands County, Florida",445,934,3554,8658,79028,0.10794908133825985,0.004454117527964772,65437,0.8280229791972465,13591,0.17197702080275346,4933,0.06242091410639267
346,US,Florida,"Nassau County, Florida",2021-05-06T16:31:00Z,30.61077673,-81.80173997,8372,125,0,12,89,"Nassau County, Florida",797,1084,5046,11126,61082,0.13706165482466193,0.0020464293900003274,43029,0.7044464817785927,18053,0.2955535182214073,6927,0.11340493107625814
347,US,Florida,"Columbia County, Florida",2021-05-06T16:31:00Z,30.22449371,-82.62153926,8125,169,0,12,23,"Columbia County, Florida",316,485,1452,4945,48455,0.16768135383345373,0.0034877721597358375,41257,0.8514497987823754,7198,0.1485502012176246,2253,0.046496749561448766
348,US,Florida,"Walton County, Florida",2021-05-06T16:31:00Z,30.65939599,-86.16268062,7788,88,0,12,131,"Walton County, Florida",509,948,3263,9555,50028,0.15567282321899736,0.001759014951627089,35753,0.7146597905173103,14275,0.2853402094826897,4720,0.09434716558727113
349,US,Florida,"Flagler County, Florida",2021-05-06T16:31:00Z,29.46142050000001,-81.31356058,7294,113,0,12,35,"Flagler County, Florida",676,1318,5800,13244,83852,0.0869865954300434,0.0013476124600486571,62814,0.7491055669512952,21038,0.25089443304870485,7794,0.09294948242140914
350,US,Florida,"Monroe County, Florida",2021-05-06T16:31:00Z,39.49217,-91.78738,6956,50,0,12,87,"Monroe County, Florida",942,1494,5242,12789,59492,0.11692328380286425,0.0008404491360182882,39025,0.6559705506622739,20467,0.34402944933772606,7678,0.12905936932696832
351,US,Florida,"Putnam County, Florida",2021-05-06T16:31:00Z,29.61129946,-81.74554066,6498,148,0,12,107,"Putnam County, Florida",268,369,1703,4092,52277,0.12429940509210552,0.002831072938385906,45845,0.876963100407445,6432,0.12303689959255504,2340,0.04476155862042581
352,US,Florida,"Jackson County, Florida",2021-05-06T16:31:00Z,30.79572970000001,-85.21834956,6210,157,0,12,63,"Jackson County, Florida",156,264,1370,2626,35094,0.1769533253547615,0.004473699207841796,30678,0.8741665241921696,4416,0.12583347580783039,1790,0.05100586994927908
353,US,Florida,"Gadsden County, Florida",2021-05-06T16:31:00Z,30.57948492,-84.61351742,5669,98,0,12,39,"Gadsden County, Florida",327,225,1283,3380,32151,0.17632422008646698,0.0030481166993250597,26936,0.8377966470716307,5215,0.16220335292836927,1835,0.05707443003328046
354,US,Florida,"Suwannee County, Florida",2021-05-06T16:31:00Z,30.19558189,-82.99149352,5333,138,0,12,121,"Suwannee County, Florida",224,156,1318,3119,31135,0.1712863337080456,0.004432310904127188,26318,0.8452866548899952,4817,0.1547133451100048,1698,0.05453669503773888
355,US,Florida,"Hendry County, Florida",2021-05-06T16:31:00Z,26.54718711,-81.17167885,4727,83,0,12,51,"Hendry County, Florida",89,47,623,1371,25671,0.18413774297845817,0.003233220365392856,23541,0.9170269954423279,2130,0.08297300455767208,759,0.029566436835339487
356,US,Florida,"DeSoto County, Florida",2021-05-06T16:31:00Z,27.18625815,-81.80950056,4334,93,0,12,27,"DeSoto County, Florida",52,99,745,2153,26434,0.16395551184081109,0.003518196262389347,23385,0.8846561246879019,3049,0.11534387531209805,896,0.03389574033441779
357,US,Florida,"Okeechobee County, Florida",2021-05-06T16:31:00Z,27.42741658,-80.90123565,4011,90,0,12,93,"Okeechobee County, Florida",40,109,747,2387,28952,0.13853965183752417,0.003108593534125449,25669,0.886605415860735,3283,0.113394584139265,896,0.030947775628626693
358,US,Florida,"Baker County, Florida",2021-05-06T16:31:00Z,30.331029700000002,-82.28459751,3497,62,0,12,3,"Baker County, Florida",100,117,639,1669,19065,0.18342512457382637,0.0032520325203252032,16540,0.8675583530028849,2525,0.13244164699711514,856,0.044899029635457645
359,US,Florida,"Wakulla County, Florida",2021-05-06T16:31:00Z,30.16891607,-84.40091841,3443,55,0,12,129,"Wakulla County, Florida",171,126,1119,2862,23343,0.14749603735595254,0.0023561667309257594,19065,0.8167330677290837,4278,0.18326693227091634,1416,0.06066058347256137
360,US,Florida,"Levy County, Florida",2021-05-06T16:31:00Z,29.3197128,-82.74264885,3441,54,0,12,75,"Levy County, Florida",102,217,1000,2290,29615,0.11619111936518656,0.0018234003039000507,26006,0.8781360796893466,3609,0.12186392031065338,1319,0.04453824075637346
361,US,Florida,"Hardee County, Florida",2021-05-06T16:31:00Z,27.49268751,-81.80992068,3134,43,0,12,49,"Hardee County, Florida",50,48,465,1223,17470,0.1793932455638237,0.0024613623354321694,15684,0.8977676016027476,1786,0.10223239839725243,563,0.03222667429879794
362,US,Florida,"Bradford County, Florida",2021-05-06T16:31:00Z,29.94996425,-82.16878035,3013,56,0,12,7,"Bradford County, Florida",58,79,567,1255,19879,0.1515669802303939,0.002817043110820464,17920,0.9014537954625484,1959,0.09854620453745158,704,0.0354142562503144
363,US,Florida,"Washington County, Florida",2021-05-06T16:31:00Z,30.61052578,-85.66522117,2731,52,0,12,133,"Washington County, Florida",92,96,513,1537,17881,0.15273195011464683,0.0029081147586824,15643,0.8748392148090152,2238,0.12516078519098484,701,0.03920362395839159
364,US,Florida,"Taylor County, Florida",2021-05-06T16:31:00Z,30.04717437,-83.60333237,2727,48,0,12,123,"Taylor County, Florida",59,86,292,907,16100,0.16937888198757764,0.0029813664596273293,14756,0.9165217391304348,1344,0.08347826086956522,437,0.027142857142857142
365,US,Florida,"Holmes County, Florida",2021-05-06T16:31:00Z,30.86792762,-85.81398628,2257,52,0,12,59,"Holmes County, Florida",0,97,340,1072,14080,0.16029829545454546,0.003693181818181818,12571,0.8928267045454545,1509,0.10717329545454546,437,0.031036931818181818
366,US,Florida,"Madison County, Florida",2021-05-06T16:31:00Z,40.213879999999996,-85.70948,2060,45,0,12,79,"Madison County, Florida",23,62,584,1237,13595,0.15152629643251195,0.0033100404560500183,11689,0.859801397572637,1906,0.140198602427363,669,0.04920926811327694
367,US,Florida,"Gulf County, Florida",2021-05-06T16:31:00Z,29.95627817,-85.22647887,1965,43,0,12,45,"Gulf County, Florida",46,224,670,1360,11954,0.1643801238079304,0.0035971223021582736,9654,0.8075957838380459,2300,0.19240421616195416,940,0.0786347666053204
368,US,Florida,"Union County, Florida",2021-05-06T16:31:00Z,30.0438157,-82.37139913,1823,73,0,12,125,"Union County, Florida",50,65,218,699,11218,0.1625066856837226,0.006507398823319665,10186,0.9080049919771795,1032,0.09199500802282047,333,0.029684435728293813
369,US,Florida,"Calhoun County, Florida",2021-05-06T16:31:00Z,30.40591622,-85.19725477,1693,47,0,12,13,"Calhoun County, Florida",21,45,196,739,10524,0.16087039148612695,0.004465982516153554,9523,0.9048840744963892,1001,0.0951159255036108,262,0.02489547700494109
370,US,Florida,"Hamilton County, Florida",2021-05-06T16:31:00Z,30.49645924,-82.94801948,1626,25,0,12,47,"Hamilton County, Florida",19,27,128,649,10388,0.15652676164805546,0.002406623026569118,9565,0.9207739699653447,823,0.07922603003465536,174,0.016750096264921063
371,US,Florida,"Lafayette County, Florida",2021-05-06T16:31:00Z,29.98546043,-83.18105572,1619,26,0,12,67,"Lafayette County, Florida",52,210,126,310,5938,0.2726507241495453,0.004378578646008757,5240,0.8824520040417649,698,0.11754799595823509,388,0.06534186594813068
372,US,Florida,"Gilchrist County, Florida",2021-05-06T16:31:00Z,29.72589573,-82.80037962,1612,43,0,12,41,"Gilchrist County, Florida",46,81,364,1151,12269,0.13138805118591573,0.003504768114760779,10627,0.8661667617572745,1642,0.13383323824272556,491,0.04001956149645448
373,US,Florida,"Dixie County, Florida",2021-05-06T16:31:00Z,29.60848621,-83.15877625,1608,24,0,12,29,"Dixie County, Florida",82,155,232,833,12527,0.12836273648918337,0.0019158617386445277,11225,0.8960645006785344,1302,0.10393549932146563,469,0.037439131476011814
